index,Year,Disaster Group,Disaster Subgroup,Disaster Type,Disaster Subtype,Disaster Subsubtype,Country,Region,Continent,Location,Dis Mag Scale,Latitude,Longitude,Total Deaths,No Injured,No Affected,No Homeless,Total Affected
0,1900,Natural,Climatological,Drought,Drought,Drought,Cabo Verde,Western Africa,Africa,Countrywide,Km2,52.088299199999994,-2.157944832014875,11000.0,,,,
1,1900,Natural,Climatological,Drought,Drought,Drought,India,Southern Asia,Asia,Bengal,Km2,39.4735045,-85.9228997,1250000.0,,,,
2,1903,Natural,Geophysical,Mass movement (dry),Rockfall,Mass movement (dry) / Rockfall,Canada,Northern America,Americas,"Frank, Alberta",,49.6016471,-114.406023,76.0,23.0,,,23.0
3,1904,Natural,Meteorological,Storm,Tropical cyclone,Storm / Tropical cyclone,Bangladesh,Southern Asia,Asia,Chittagong,Kph,22.3336887,91.8342162,,,,,
4,1905,Natural,Geophysical,Mass movement (dry),Rockfall,Mass movement (dry) / Rockfall,Canada,Northern America,Americas,"Spence's Bridge, British Columbia",,55.001251,-125.002441,18.0,18.0,,,18.0
5,1906,Natural,Hydrological,Flood,Flood,Flood,Belgium,Western Europe,Europe,Louvain region,Km2,50.879202,4.7011675,6.0,,,,
6,1906,Natural,Hydrological,Flood,Flood,Flood,Belgium,Western Europe,Europe,,Km2,50.6402809,4.6667145,,,,,
7,1906,Natural,Meteorological,Storm,Tropical cyclone,Storm / Tropical cyclone,Hong Kong,Eastern Asia,Asia,,Kph,22.2793278,114.1628131,10000.0,,,,
8,1907,Natural,Biological,Epidemic,Bacterial disease,Epidemic / Bacterial disease,India,Southern Asia,Asia,,Vaccinated,22.3511148,78.6677428,1300000.0,,,,
9,1908,Natural,Geophysical,Mass movement (dry),Landslide,Mass movement (dry) / Landslide,Canada,Northern America,Americas,"Notre Dame de La Salette, Quebec",,45.768002,-75.584564,33.0,,,,
10,1909,Natural,Meteorological,Storm,Tropical cyclone,Storm / Tropical cyclone,Bangladesh,Southern Asia,Asia,Bakerganj,Kph,22.5403205,90.3322187,172.0,,,,
11,1909,Natural,Meteorological,Storm,Tropical cyclone,Storm / Tropical cyclone,Bangladesh,Southern Asia,Asia,West Sundarbans,Kph,-34.0494884,18.7762839,,,,,
12,1909,Natural,Biological,Epidemic,Bacterial disease,Epidemic / Bacterial disease,China,Eastern Asia,Asia,,Vaccinated,35.000074,104.999927,1500000.0,,,,
13,1909,Natural,Meteorological,Storm,Tropical cyclone,Storm / Tropical cyclone,Haiti,Caribbean,Americas,"Cul de Sac,Leogane",Kph,18.5111126,-72.6334255,150.0,,,,
14,1909,Natural,Biological,Epidemic,Bacterial disease,Epidemic / Bacterial disease,Indonesia,South-Eastern Asia,Asia,,Vaccinated,-2.4833826,117.8902853,40.0,,,,
15,1910,Natural,Climatological,Drought,Drought,Drought,Burkina Faso,Western Africa,Africa,,Km2,12.0753083,-1.6880314,,,,,
16,1910,Natural,Hydrological,Landslide,Avalanche,Landslide / Avalanche,Canada,Northern America,Americas,"Roger's Pass, British Columbia",,49.3173588,-122.8223063,62.0,,,,
17,1910,Natural,Biological,Epidemic,Bacterial disease,Epidemic / Bacterial disease,China,Eastern Asia,Asia,Manchuria,Vaccinated,-9.2079909,-76.1651529,60000.0,,,,
18,1910,Natural,Climatological,Drought,Drought,Drought,Cabo Verde,Western Africa,Africa,,Km2,16.0000552,-24.0083947,,,,,
19,1910,Natural,Climatological,Drought,Drought,Drought,Gambia (the),Western Africa,Africa,,Km2,13.470062,-15.4900464,,,,,
20,1910,Natural,Climatological,Drought,Drought,Drought,Guinea-Bissau,Western Africa,Africa,,Km2,11.815215,-15.2351044,,,,,
21,1911,Natural,Meteorological,Storm,Tropical cyclone,Storm / Tropical cyclone,Bangladesh,Southern Asia,Asia,Teknaf,Kph,20.8684566,92.298748,,,,,
22,1911,Natural,Climatological,Wildfire,Forest fire,Wildfire / Forest fire,Canada,Northern America,Americas,"Cochrane (and Northern Region), Ontario",Km2,50.000678,-86.000977,73.0,,,200.0,200.0
23,1911,Natural,Hydrological,Flood,Riverine flood,Flood / Riverine flood,China,Eastern Asia,Asia,,Km2,35.000074,104.999927,100000.0,,,,
24,1912,Natural,Meteorological,Storm,Convective storm,Tornado,Canada,Northern America,Americas,"Regina, Saskatchewan",Kph,50.44876,-104.61731,28.0,200.0,,2500.0,2700.0
25,1912,Natural,Meteorological,Storm,Tropical cyclone,Storm / Tropical cyclone,China,Eastern Asia,Asia,Wenchou,Kph,35.000074,104.999927,50000.0,,,,
26,1915,Natural,Hydrological,Landslide,Avalanche,Landslide / Avalanche,Canada,Northern America,Americas,"Cooper Mine, British Columbia",,55.001251,-125.002441,56.0,22.0,,,22.0
27,1915,Natural,Hydrological,Flood,Riverine flood,Flood / Riverine flood,China,Eastern Asia,Asia,Guangzhou,Km2,23.1301964,113.2592945,,,3000000.0,,3000000.0
28,1915,Natural,Meteorological,Storm,Tropical cyclone,Storm / Tropical cyclone,Haiti,Caribbean,Americas,"South, Southwest area",Kph,45.4376309,-122.67948953578005,1600.0,,,,
29,1916,Natural,Meteorological,Storm,Tropical cyclone,Storm / Tropical cyclone,India,Southern Asia,Asia,"Cuddalore, Pondicherry",Kph,11.9107269,79.8094769,300.0,,,,
30,1917,Natural,Hydrological,Flood,Riverine flood,Flood / Riverine flood,China,Eastern Asia,Asia,Tianjin,Km2,39.0856735,117.1951073,,,635000.0,,635000.0
31,1918,Natural,Biological,Epidemic,Viral disease,Epidemic / Viral disease,Bangladesh,Southern Asia,Asia,,Vaccinated,24.4769288,90.2934413,393000.0,,,,
32,1918,Natural,Biological,Epidemic,Viral disease,Epidemic / Viral disease,Canada,Northern America,Americas,Natiuonwide,Vaccinated,61.0666922,-107.991707,50000.0,,2000000.0,,2000000.0
33,1919,Natural,Biological,Epidemic,Viral disease,Epidemic / Viral disease,Anguilla,Caribbean,Americas,,Vaccinated,18.1954947,-63.0750234,,,,,
34,1919,Natural,Climatological,Drought,Drought,Drought,Anguilla,Caribbean,Americas,,Km2,18.1954947,-63.0750234,,,,,
35,1919,Natural,Meteorological,Storm,Tropical cyclone,Storm / Tropical cyclone,Bangladesh,Southern Asia,Asia,Bakerganj,Kph,22.5403205,90.3322187,,,,,
36,1920,Natural,Climatological,Drought,Drought,Drought,Cabo Verde,Western Africa,Africa,Countrywide,Km2,52.088299199999994,-2.157944832014875,24000.0,,,,
37,1920,Natural,Biological,Epidemic,Viral disease,Epidemic / Viral disease,Anguilla,Caribbean,Americas,,Vaccinated,18.1954947,-63.0750234,,,,,
38,1920,Natural,Climatological,Drought,Drought,Drought,China,Eastern Asia,Asia,North,Km2,40.3736611,127.0870417,500000.0,,20000000.0,,20000000.0
39,1920,Natural,Hydrological,Flood,Flood,Flood,Germany Fed Rep,Western Europe,Europe,Danube area,Km2,25.1197809,55.2206385,,,,,
40,1920,Natural,Biological,Epidemic,Bacterial disease,Epidemic / Bacterial disease,India,Southern Asia,Asia,,Vaccinated,22.3511148,78.6677428,2000000.0,,,,
41,1920,Natural,Biological,Epidemic,Bacterial disease,Epidemic / Bacterial disease,India,Southern Asia,Asia,,Vaccinated,22.3511148,78.6677428,500000.0,,,,
42,1921,Natural,Biological,Epidemic,Viral disease,Epidemic / Viral disease,Anguilla,Caribbean,Americas,,Vaccinated,18.1954947,-63.0750234,,,,,
43,1922,Natural,Biological,Epidemic,Viral disease,Epidemic / Viral disease,Anguilla,Caribbean,Americas,,Vaccinated,18.1954947,-63.0750234,,,,,
44,1922,Natural,Meteorological,Storm,Tropical cyclone,Storm / Tropical cyclone,Bangladesh,Southern Asia,Asia,Teknaf,Kph,20.8684566,92.298748,,,,,
45,1922,Natural,Climatological,Wildfire,Forest fire,Wildfire / Forest fire,Canada,Northern America,Americas,"Haileybury, Ontario",Km2,47.4441901,-79.6360804,43.0,,,11000.0,11000.0
46,1922,Natural,Meteorological,Storm,Tropical cyclone,Storm / Tropical cyclone,China,Eastern Asia,Asia,Swatow,Kph,22.2757363,114.1716702,100000.0,,,,
47,1923,Natural,Biological,Epidemic,Viral disease,Epidemic / Viral disease,Anguilla,Caribbean,Americas,,Vaccinated,18.1954947,-63.0750234,,,,,
48,1923,Natural,Meteorological,Storm,Tropical cyclone,Storm / Tropical cyclone,Bangladesh,Southern Asia,Asia,"Cox's Bazar, Chittagong",Kph,21.1765971,92.00322507810606,6.0,,,25000.0,25000.0
49,1923,Natural,Meteorological,Storm,Tropical cyclone,Storm / Tropical cyclone,Hong Kong,Eastern Asia,Asia,,Kph,22.2793278,114.1628131,100.0,,,,
50,1924,Natural,Meteorological,Storm,Tropical cyclone,Storm / Tropical cyclone,India,Southern Asia,Asia,Punjab province,Kph,39.6204126,-0.3069997,1242.0,,1000000.0,,1000000.0
51,1924,Natural,Biological,Epidemic,Bacterial disease,Epidemic / Bacterial disease,India,Southern Asia,Asia,,Vaccinated,22.3511148,78.6677428,300000.0,,,,
52,1925,Natural,Hydrological,Flood,Flood,Flood,Germany Fed Rep,Western Europe,Europe,Rhine area,Km2,51.51751795,7.1439182017132445,,,,,
53,1925,Natural,Meteorological,Storm,Tropical cyclone,Storm / Tropical cyclone,India,Southern Asia,Asia,"Bezwada, Masulipatam",Kph,22.3511148,78.6677428,80.0,,,,
54,1926,Natural,Meteorological,Storm,Tropical cyclone,Storm / Tropical cyclone,Bangladesh,Southern Asia,Asia,Cox's Bazar,Kph,21.1765971,92.00322507810606,,,,,
55,1926,Natural,Meteorological,Storm,Tropical cyclone,Storm / Tropical cyclone,Bahamas (the),Caribbean,Americas,Nassau,Kph,25.0782266,-77.3383438,,,,,
56,1926,Natural,Hydrological,Landslide,Landslide,Landslide,Colombia,South America,Americas,Pereira,,4.8143159,-75.6946778,100.0,,,,
57,1926,Natural,Meteorological,Storm,Tropical cyclone,Storm / Tropical cyclone,Cuba,Caribbean,Americas,Havana and suburbs,Kph,23.0131338,-80.8328748,600.0,,,,
58,1926,Natural,Hydrological,Flood,Flood,Flood,Germany Fed Rep,Western Europe,Europe,Rhine area,Km2,51.51751795,7.1439182017132445,,,,,
59,1926,Natural,Hydrological,Landslide,Mudslide,Landslide / Mudslide,France,Western Europe,Europe,Roquebillière (Alpes-Maritimes),,44.0127173,7.307673,28.0,,,,
60,1926,Natural,Hydrological,Flood,Riverine flood,Flood / Riverine flood,India,Southern Asia,Asia,Bengal,Km2,39.4735045,-85.9228997,,,,,
61,1926,Natural,Biological,Epidemic,Viral disease,Epidemic / Viral disease,India,Southern Asia,Asia,,Vaccinated,22.3511148,78.6677428,423000.0,,,,
62,1927,Natural,Meteorological,Storm,Tropical cyclone,Storm / Tropical cyclone,China,Eastern Asia,Asia,Yeng-Kong,Kph,35.000074,104.999927,5000.0,,,,
63,1927,Natural,Hydrological,Flood,Flood,Flood,Algeria,Northern Africa,Africa,Mostaganem,Km2,36.0026915,0.3686866818796205,3000.0,,,,
64,1927,Natural,Meteorological,Storm,Tropical cyclone,Storm / Tropical cyclone,India,Southern Asia,Asia,"Gujarat, Ahmedabad, Baroda",Kph,23.0825491,72.5900739,56.0,10.0,40000.0,,40010.0
65,1927,Natural,Meteorological,Storm,Tropical cyclone,Storm / Tropical cyclone,India,Southern Asia,Asia,Nellore,Kph,14.4493717,79.9873763,629.0,,,,
66,1928,Natural,Hydrological,Flood,Flood,Flood,Belgium,Western Europe,Europe,,Km2,50.6402809,4.6667145,,,6000.0,,6000.0
67,1928,Natural,Geophysical,Earthquake,Tsunami,Earthquake / Tsunami,Canada,Northern America,Americas,"Burin Peninsula, Newfoundland",Richter,48.60 N,58.00 W,27.0,,,,
68,1928,Natural,Climatological,Drought,Drought,Drought,China,Eastern Asia,Asia,"Shensi, Honan, Kansu",Km2,38.0000001,101.9999999,3000000.0,,,,
69,1928,Natural,Meteorological,Storm,Tropical cyclone,Storm / Tropical cyclone,Guadeloupe,Caribbean,Americas,,Kph,16.2528827,-61.5686855,2000.0,,,,
70,1928,Natural,Geophysical,Earthquake,Tsunami,Earthquake / Tsunami,Indonesia,South-Eastern Asia,Asia,Flores sea,Richter,8.30 S,121.70 E,128.0,,,,
71,1928,Natural,Hydrological,Flood,Flood,Flood,India,Southern Asia,Asia,"Godavari, Vizagapatnam",Km2,22.3511148,78.6677428,36.0,,,2000.0,2000.0
72,1929,Natural,Meteorological,Storm,Tropical cyclone,Storm / Tropical cyclone,Bahamas (the),Caribbean,Americas,Nassau,Kph,25.0782266,-77.3383438,,,,,
73,1929,Natural,Meteorological,Storm,Convective storm,Hail,Germany Fed Rep,Western Europe,Europe,"Bavaria, Baden-Wurtemberg",Kph,48.5219204,9.0530071,,,,,
74,1930,Natural,Meteorological,Storm,Storm,Storm,Belgium,Western Europe,Europe,Meuse Valley,Kph,47.8435006,1.910614,60.0,,,,
75,1930,Natural,Meteorological,Storm,Tropical cyclone,Storm / Tropical cyclone,Dominica,Caribbean,Americas,San Zenon,Kph,9.2468063,-74.49739397061089,2000.0,,,,
76,1930,Natural,Meteorological,Storm,Tropical cyclone,Storm / Tropical cyclone,Dominican Republic (the),Caribbean,Americas,Santo Domingo,Kph,18.4801972,-69.942111,2000.0,6000.0,6000.0,,12000.0
77,1930,Natural,Hydrological,Landslide,Landslide,Landslide,France,Western Europe,Europe,"Lyon (Rhone) - Colline des Balmes, quartier Saint-Jean",,48.2967473,4.0725775790798355,40.0,,,,
78,1930,Natural,Meteorological,Storm,Convective storm,Hail,Greece,Southern Europe,Europe,Siatista,Kph,40.2601606,21.5509796,22.0,,,,
79,1931,Natural,Climatological,Drought,Drought,Drought,Canada,Northern America,Americas,"Prairie provinces, Western Canada",Km2,45.9416314,-74.2284004,,,25000.0,,25000.0
80,1931,Natural,Hydrological,Flood,Riverine flood,Flood / Riverine flood,China,Eastern Asia,Asia,,Km2,35.000074,104.999927,3700000.0,,,,
81,1931,Natural,Meteorological,Storm,Tropical cyclone,Storm / Tropical cyclone,Belize,Central America,Americas,Belize city,Kph,17.5000543,-88.2003115,1500.0,,,,
82,1931,Natural,Hydrological,Landslide,Landslide,Landslide,Ecuador,South America,Americas,Huigra,,-2.2883417,-78.9812219,190.0,,,,
83,1931,Natural,Meteorological,Storm,Tropical cyclone,Storm / Tropical cyclone,Fiji,Melanesia,Oceania,"Labasa, Lautoka",Kph,-17.6043956,177.4530138,200.0,,,,
84,1931,Natural,Meteorological,Storm,Tropical cyclone,Storm / Tropical cyclone,Honduras,Central America,Americas,,Kph,15.2572432,-86.0755145,1500.0,,,,
85,1932,Natural,Meteorological,Storm,Tropical cyclone,Storm / Tropical cyclone,Cuba,Caribbean,Americas,Santa Cruz Del Sur (Camaguey province),Kph,23.0131338,-80.8328748,2500.0,,,,
86,1932,Natural,Hydrological,Landslide,Landslide,Landslide,France,Western Europe,Europe,"Lyon (Rhone), cours d'Herbouville",,45.7738964,4.8384188,30.0,,,,
87,1933,Natural,Hydrological,Flood,Riverine flood,Flood / Riverine flood,China,Eastern Asia,Asia,"Henan, Hebei, Shandong, Jiangsy",Km2,35.000074,104.999927,18000.0,,,3600000.0,3600000.0
88,1934,Natural,Hydrological,Landslide,Landslide,Landslide,China,Eastern Asia,Asia,Canton,,32.555664,-95.8640507,500.0,,,,
89,1935,Natural,Meteorological,Storm,Tropical cyclone,Storm / Tropical cyclone,Bahamas (the),Caribbean,Americas,Bimini,Kph,25.70318795,-79.28145926583792,14.0,,,,
90,1935,Natural,Hydrological,Flood,Flood,Flood,China,Eastern Asia,Asia,,Km2,35.000074,104.999927,142000.0,,10030000.0,,10030000.0
91,1935,Natural,Meteorological,Storm,Tropical cyclone,Storm / Tropical cyclone,Cuba,Caribbean,Americas,,Kph,23.0131338,-80.8328748,35.0,500.0,,,500.0
92,1935,Natural,Meteorological,Storm,Tropical cyclone,Storm / Tropical cyclone,Haiti,Caribbean,Americas,,Kph,19.1399952,-72.3570972,2150.0,,,,
93,1935,Natural,Meteorological,Storm,Tropical cyclone,Storm / Tropical cyclone,India,Southern Asia,Asia,,Kph,22.3511148,78.6677428,60000.0,,,,
94,1935,Natural,Meteorological,Storm,Storm,Storm,India,Southern Asia,Asia,"Madras, Negapatam",Kph,22.3511148,78.6677428,100.0,,,,
95,1936,Natural,Meteorological,Extreme temperature ,Heat wave,Extreme temperature  / Heat wave,Canada,Northern America,Americas,Nationwide (except Yukon and Nothwest territories),°C,61.0666922,-107.991707,500.0,,,,
96,1936,Natural,Meteorological,Storm,Tropical cyclone,Storm / Tropical cyclone,India,Southern Asia,Asia,Guntur (Madras),Kph,13.0358084,80.23782601567781,233.0,,,,
97,1937,Natural,Meteorological,Storm,Tropical cyclone,Storm / Tropical cyclone,Bangladesh,Southern Asia,Asia,Noakhali,Kph,22.72145365,91.06247879347157,,,,,
98,1937,Natural,Meteorological,Storm,Tropical cyclone,Storm / Tropical cyclone,Hong Kong,Eastern Asia,Asia,,Kph,22.2793278,114.1628131,11000.0,,,,
99,1939,Natural,Climatological,Wildfire,"Land fire (Brush, Bush, Pasture)","Wildfire / Land fire (Brush, Bush, Pasture)",Australia,Australia and New Zealand,Oceania,Victoria New South Wales,Km2,-33.89179195,151.13209740000002,71.0,,,3900.0,3900.0
100,1939,Natural,Hydrological,Flood,Riverine flood,Flood / Riverine flood,China,Eastern Asia,Asia,Honan province,Km2,34.0000001,113.9999999,500000.0,,,,
101,1940,Natural,Climatological,Drought,Drought,Drought,Burkina Faso,Western Africa,Africa,,Km2,12.0753083,-1.6880314,,,,,
102,1940,Natural,Climatological,Drought,Drought,Drought,Cabo Verde,Western Africa,Africa,"Nicolau, Fogo, Sao Tiago",Km2,-20.913056,-44.509167,20000.0,,,,
103,1940,Natural,Climatological,Drought,Drought,Drought,Gambia (the),Western Africa,Africa,,Km2,13.470062,-15.4900464,,,,,
104,1940,Natural,Climatological,Drought,Drought,Drought,Guinea-Bissau,Western Africa,Africa,,Km2,11.815215,-15.2351044,,,,,
105,1941,Natural,Meteorological,Storm,Tropical cyclone,Storm / Tropical cyclone,Bangladesh,Southern Asia,Asia,"Bhola, East Meghna estuary",Kph,24.4769288,90.2934413,5000.0,,,,
106,1941,Natural,Meteorological,Storm,Tropical cyclone,Storm / Tropical cyclone,Fiji,Melanesia,Oceania,Viti Levu,Kph,-17.793383050000003,177.9782252066411,6.0,,,,
107,1942,Natural,Climatological,Drought,Drought,Drought,India,Southern Asia,Asia,"Calcutta, Bengal region",Km2,14.3209482,120.8718552,1500000.0,,,,
108,1942,Natural,Meteorological,Storm,Tropical cyclone,Storm / Tropical cyclone,Bangladesh,Southern Asia,Asia,West Sundarbans,Kph,-34.0494884,18.7762839,61000.0,,,,
109,1942,Natural,Meteorological,Storm,Tropical cyclone,Storm / Tropical cyclone,Cook Islands (the),Polynesia,Oceania," Palmeston, Suwarrow",Kph,-13.2706916,-163.1321197,,,,,
110,1942,Natural,Meteorological,Storm,Tropical cyclone,Storm / Tropical cyclone,India,Southern Asia,Asia,"Orissa, West Bengal",Kph,22.4719979,88.0269373,40000.0,,,,
111,1943,Natural,Climatological,Drought,Drought,Drought,Bangladesh,Southern Asia,Asia,,Km2,24.4769288,90.2934413,1900000.0,,,,
112,1943,Natural,Meteorological,Storm,Tropical cyclone,Storm / Tropical cyclone,Cook Islands (the),Polynesia,Oceania,Rarotonga,Kph,-21.247552849999998,-159.77610904284523,,,,,
113,1943,Natural,Meteorological,Storm,Tropical cyclone,Storm / Tropical cyclone,India,Southern Asia,Asia,Rajputana,Kph,22.4707735,70.0721618,5000.0,,,,
114,1943,Natural,Meteorological,Storm,Storm,Storm,India,Southern Asia,Asia,Madras,Kph,13.0836939,80.270186,,,30000.0,,30000.0
115,1944,Natural,Meteorological,Storm,Tropical cyclone,Storm / Tropical cyclone,Cuba,Caribbean,Americas,"Isle of Pines, La Havana",Kph,50.8368511,-0.7760871,,,,,
116,1944,Natural,Climatological,Wildfire,"Land fire (Brush, Bush, Pasture)","Wildfire / Land fire (Brush, Bush, Pasture)",Australia,Australia and New Zealand,Oceania,Western District Victoria,Km2,22.27658545,114.16930117418485,49.0,,,2100.0,2100.0
117,1944,Natural,Meteorological,Storm,Tropical cyclone,Storm / Tropical cyclone,India,Southern Asia,Asia,Assam,Kph,26.4073841,93.2551303,304.0,,,,
118,1945,Natural,Biological,Epidemic,Viral disease,Epidemic / Viral disease,Belgium,Western Europe,Europe,"Liege's province, Bruxelles",Vaccinated,50.5884753,5.8559953,,,104.0,,104.0
119,1945,Natural,Meteorological,Storm,Tropical cyclone,Storm / Tropical cyclone,Bahamas (the),Caribbean,Americas,,Kph,51.5071471,-0.14865011413427567,22.0,,,,
120,1945,Natural,Meteorological,Storm,Tropical cyclone,Storm / Tropical cyclone,India,Southern Asia,Asia,"Gujarat, Punjab",Kph,22.30377325,73.20414065201317,,,,2000.0,2000.0
121,1946,Natural,Climatological,Drought,Drought,Drought,Cabo Verde,Western Africa,Africa,Countrywide,Km2,52.088299199999994,-2.157944832014875,30000.0,,,,
122,1946,Natural,Meteorological,Storm,Tropical cyclone,Storm / Tropical cyclone,Azores Islands,Southern Europe,Europe,,Kph,28.1255992,-15.4346135,27.0,,,,
123,1946,Natural,Meteorological,Storm,Storm,Storm,Canada,Northern America,Americas,"Windsor, Ontario",Kph,42.3167397,-83.0373389,17.0,,,,
124,1946,Natural,Meteorological,Storm,Tropical cyclone,Storm / Tropical cyclone,Cook Islands (the),Polynesia,Oceania,"Rarotonga, Aitutaki",Kph,-21.2072067,-159.77170324754923,,,,,
125,1947,Natural,Meteorological,Storm,Tropical cyclone,Storm / Tropical cyclone,Bangladesh,Southern Asia,Asia,"Cox's Bazar, Chittagong",Kph,21.1765971,92.00322507810606,500.0,,,,
126,1947,Natural,Climatological,Drought,Drought,Drought,Bangladesh,Southern Asia,Asia,,Km2,24.4769288,90.2934413,,,,,
127,1947,Natural,Biological,Epidemic,Bacterial disease,Epidemic / Bacterial disease,Egypt,Northern Africa,Africa,Nationwide,Vaccinated,51.5382399,-1.776966675,10276.0,,,,
128,1947,Natural,Meteorological,Storm,Tropical cyclone,Storm / Tropical cyclone,Hong Kong,Eastern Asia,Asia,,Kph,22.2793278,114.1628131,2000.0,,,,
129,1948,Natural,Meteorological,Storm,Tropical cyclone,Storm / Tropical cyclone,Bermuda,Northern America,Americas,,Kph,32.30382,-64.7561647,,,,,
130,1948,Natural,Hydrological,Flood,Flood,Flood,Brazil,South America,Americas,,Km2,-10.3333333,-53.2,200.0,,,,
131,1948,Natural,Meteorological,Storm,Tropical cyclone,Storm / Tropical cyclone,China,Eastern Asia,Asia,Foochow coast,Kph,35.000074,104.999927,1000.0,,,,
132,1948,Natural,Meteorological,Storm,Tropical cyclone,Storm / Tropical cyclone,China,Eastern Asia,Asia,,Kph,35.000074,104.999927,800.0,,,,
133,1948,Natural,Hydrological,Flood,Flood,Flood,China,Eastern Asia,Asia,,Km2,35.000074,104.999927,330.0,,,,
134,1948,Natural,Meteorological,Storm,Tropical cyclone,Storm / Tropical cyclone,Cuba,Caribbean,Americas,,Kph,23.0131338,-80.8328748,3.0,,,,
135,1948,Natural,Meteorological,Storm,Tropical cyclone,Storm / Tropical cyclone,Cuba,Caribbean,Americas,,Kph,23.0131338,-80.8328748,11.0,300.0,,,300.0
136,1948,Natural,Hydrological,Landslide,Landslide,Landslide,India,Southern Asia,Asia,Assam,,26.4073841,93.2551303,500.0,,,,
137,1949,Natural,Meteorological,Storm,Storm,Storm,Brazil,South America,Americas,,Kph,-10.3333333,-53.2,100.0,,,,
138,1949,Natural,Hydrological,Flood,Flood,Flood,China,Eastern Asia,Asia,,Km2,35.000074,104.999927,57000.0,,,,
139,1949,Natural,Climatological,Wildfire,Wildfire,Wildfire,France,Western Europe,Europe,Landes,Km2,44.00996945,-0.6433872354467377,80.0,,,,
140,1949,Natural,Hydrological,Flood,Flood,Flood,Guatemala,Central America,Americas,East,Km2,3.9894393,14.178373,40000.0,,,,
141,1949,Natural,Meteorological,Storm,Tropical cyclone,Storm / Tropical cyclone,India,Southern Asia,Asia,"East & West Godavari districts, Masulipatnam",Kph,22.3511148,78.6677428,1000.0,,,,
142,1950,Natural,Meteorological,Storm,Tropical cyclone,Storm / Tropical cyclone,Antigua and Barbuda,Caribbean,Americas,,Kph,17.2234721,-61.9554608,2.0,,,,
143,1950,Natural,Meteorological,Storm,Convective storm,Tornado,Canada,Northern America,Americas,Regina,Kph,50.44876,-104.61731,,,,,
144,1950,Natural,Hydrological,Flood,Flood,Flood,Canada,Northern America,Americas,"Winnipeg, Manitoba",Km2,49.8955367,-97.1384584,1.0,,107000.0,,107000.0
145,1950,Natural,Hydrological,Flood,Flood,Flood,China,Eastern Asia,Asia,Anhwei province,Km2,35.000074,104.999927,500.0,,10000000.0,,10000000.0
146,1950,Natural,Hydrological,Flood,Flood,Flood,Ecuador,South America,Americas,,Km2,-1.3397668,-79.3666965,50.0,,,,
147,1950,Natural,Hydrological,Flood,Riverine flood,Flood / Riverine flood,India,Southern Asia,Asia,Saurashtra,Km2,19.0194416,72.8404862,45.0,,25000.0,,25000.0
148,1950,Natural,Meteorological,Storm,Storm,Storm,India,Southern Asia,Asia,West,Kph,0.5090396,34.5731341,90.0,,,,
149,1950,Natural,Hydrological,Flood,Flood,Flood,India,Southern Asia,Asia,,Km2,22.3511148,78.6677428,100.0,,,,
150,1951,Natural,Meteorological,Storm,Storm,Storm,Bangladesh,Southern Asia,Asia,,Kph,24.4769288,90.2934413,200.0,,,,
151,1951,Natural,Hydrological,Landslide,Avalanche,Landslide / Avalanche,Switzerland,Western Europe,Europe,,,46.7985624,8.2319736,92.0,,,,
152,1951,Natural,Hydrological,Flood,Flood,Flood,China,Eastern Asia,Asia,Manchuria,Km2,-9.2079909,-76.1651529,4800.0,,,,
153,1951,Natural,Meteorological,Storm,Convective storm,Tornado,Comoros (the),Eastern Africa,Africa,,Kph,-12.2045176,44.2832964,500.0,,,,
154,1952,Natural,Hydrological,Landslide,Landslide,Landslide,Austria,Western Europe,Europe,,,47.59397,14.12456,28.0,,,,
155,1952,Natural,Hydrological,Flood,Flood,Flood,Algeria,Northern Africa,Africa,,Km2,28.0000272,2.9999825,25.0,,,,
156,1952,Natural,Meteorological,Storm,Tropical cyclone,Storm / Tropical cyclone,Fiji,Melanesia,Oceania,Near Suva,Kph,-18.1239696,179.0122737,23.0,800.0,,,800.0
157,1952,Natural,Hydrological,Flood,Flood,Flood,United Kingdom of Great Britain and Northern Ireland (the),Northern Europe,Europe,Lynmouth,Km2,51.229864,-3.8290651,34.0,,,,
158,1952,Natural,Meteorological,Fog,Fog,Fog,United Kingdom of Great Britain and Northern Ireland (the),Northern Europe,Europe,London,,51.5073219,-0.1276474,4000.0,,,,
159,1952,Natural,Meteorological,Storm,Tropical cyclone,Storm / Tropical cyclone,India,Southern Asia,Asia,"Tanjore, Tiruchi",Kph,10.9951347,76.9735931,400.0,,1000000.0,,1000000.0
160,1952,Natural,Meteorological,Storm,Storm,Storm,India,Southern Asia,Asia,,Kph,22.3511148,78.6677428,350.0,,,,
161,1953,Natural,Hydrological,Flood,Coastal flood,Flood / Coastal flood,Belgium,Western Europe,Europe,Ostende,Km2,51.2258565,2.919496,11.0,,350.0,,350.0
162,1953,Natural,Biological,Epidemic,Viral disease,Epidemic / Viral disease,Canada,Northern America,Americas,Nationwide,Vaccinated,51.5382399,-1.776966675,481.0,,8000.0,,8000.0
163,1953,Natural,Meteorological,Storm,Convective storm,Severe storm,Germany Fed Rep,Western Europe,Europe,Bavaria,Kph,48.9467562,11.4038717,,,,,
164,1953,Natural,Hydrological,Flood,Flood,Flood,Ecuador,South America,Americas,,Km2,-1.3397668,-79.3666965,71.0,,,,
165,1953,Natural,Hydrological,Flood,Flood,Flood,Spain,Southern Europe,Europe,,Km2,39.3260685,-4.8379791,50.0,,,,
166,1953,Natural,Hydrological,Flood,Flood,Flood,Indonesia,South-Eastern Asia,Asia,,Km2,-2.4833826,117.8902853,114.0,,,,
167,1953,Natural,Meteorological,Extreme temperature ,Heat wave,Extreme temperature  / Heat wave,India,Southern Asia,Asia,,°C,22.3511148,78.6677428,400.0,,,,
168,1953,Natural,Hydrological,Flood,Flood,Flood,India,Southern Asia,Asia,,Km2,22.3511148,78.6677428,80.0,,,,
169,1954,Natural,Meteorological,Storm,Tropical cyclone,Storm / Tropical cyclone,Netherlands Antilles,Caribbean,Americas,Saint martin/Saba,Kph,18.096073099999998,-63.02488312305228,,,,,
170,1954,Natural,Hydrological,Landslide,Avalanche,Landslide / Avalanche,Austria,Western Europe,Europe,Dalaas,,47.1240671,9.9969647,10.0,,,,
171,1954,Natural,Hydrological,Landslide,Avalanche,Landslide / Avalanche,Austria,Western Europe,Europe,"Blons, Langen Valley",,47.9958492,-106.6700506,200.0,,380.0,,380.0
172,1954,Natural,Meteorological,Storm,Tropical cyclone,Storm / Tropical cyclone,Canada,Northern America,Americas,"Toronto, Ontario",Kph,43.6534817,-79.3839347,83.0,,,,
173,1954,Natural,Hydrological,Flood,Flood,Flood,China,Eastern Asia,Asia,Tibet,Km2,29.8556443,90.8749807,2000.0,,,,
174,1954,Natural,Hydrological,Flood,Flood,Flood,China,Eastern Asia,Asia,"Hopeh, Wuhan province",Km2,24.717887,121.812804,30000.0,,,,
175,1954,Natural,Hydrological,Landslide,Landslide,Landslide,Colombia,South America,Americas,Medellin,,6.2443382,-75.573553,140.0,,,,
176,1954,Natural,Hydrological,Landslide,Landslide,Landslide,Colombia,South America,Americas,,,4.099917,-72.9088133,47.0,,,,
177,1954,Natural,Hydrological,Flood,Riverine flood,Flood / Riverine flood,Egypt,Northern Africa,Africa,,Km2,26.2540493,29.2675469,,,,,
178,1954,Natural,Hydrological,Landslide,Landslide,Landslide,Haiti,Caribbean,Americas,Berly,,18.4133494,-72.3834846,262.0,,,,
179,1954,Natural,Meteorological,Storm,Tropical cyclone,Storm / Tropical cyclone,Haiti,Caribbean,Americas,Southwestern,Kph,29.5317901,-95.3707919,410.0,,250000.0,,250000.0
180,1954,Natural,Hydrological,Landslide,Landslide,Landslide,India,Southern Asia,Asia,,,22.3511148,78.6677428,30.0,,,,
181,1955,Natural,Meteorological,Storm,Tropical cyclone,Storm / Tropical cyclone,India,Southern Asia,Asia,Punjab,Kph,30.9293211,75.5004841,1500.0,,,375000.0,375000.0
182,1955,Natural,Meteorological,Storm,Tropical cyclone,Storm / Tropical cyclone,Anguilla,Caribbean,Americas,,Kph,18.1954947,-63.0750234,,,,,
183,1955,Natural,Hydrological,Flood,Flood,Flood,Australia,Australia and New Zealand,Oceania,,Km2,-24.7761086,134.755,70.0,,,,
184,1955,Natural,Meteorological,Storm,Tropical cyclone,Storm / Tropical cyclone,Belize,Central America,Americas,Corozal area,Kph,18.2647111,-88.18795402217447,16.0,,,,
185,1955,Natural,Meteorological,Storm,Tropical cyclone,Storm / Tropical cyclone,Barbados,Caribbean,Americas,,Kph,13.1500331,-59.5250305,57.0,,,,
186,1955,Natural,Geophysical,Mass movement (dry),Landslide,Mass movement (dry) / Landslide,Canada,Northern America,Americas,Nicolet (Quebec),,46.2273284,-72.6191889,3.0,6.0,,2000.0,2006.0
187,1955,Natural,Hydrological,Landslide,Landslide,Landslide,Indonesia,South-Eastern Asia,Asia,,,-2.4833826,117.8902853,405.0,,,,
188,1955,Natural,Meteorological,Storm,Tropical cyclone,Storm / Tropical cyclone,India,Southern Asia,Asia,Tanjore,Kph,10.7860267,79.1381497,500.0,,,,
189,1955,Natural,Meteorological,Storm,Storm,Storm,India,Southern Asia,Asia,,Kph,22.3511148,78.6677428,120.0,,,,
190,1956,Natural,Hydrological,Flood,Flood,Flood,Afghanistan,Southern Asia,Asia,,Km2,33.7680065,66.2385139,51.0,,,,
191,1956,Natural,Hydrological,Flood,Flood,Flood,Belgium,Western Europe,Europe,Verviers,Km2,50.59324,5.867828,4.0,,,,
192,1956,Natural,Hydrological,Landslide,Landslide,Landslide,Brazil,South America,Americas,,,-10.3333333,-53.2,30.0,,,,
193,1956,Natural,Hydrological,Landslide,Landslide,Landslide,Brazil,South America,Americas,,,-10.3333333,-53.2,36.0,,,,
194,1956,Natural,Meteorological,Storm,Tropical cyclone,Storm / Tropical cyclone,China,Eastern Asia,Asia,Hopen-Honan province,Kph,35.000074,104.999927,2000.0,,,,
195,1956,Natural,Hydrological,Flood,Flood,Flood,China,Eastern Asia,Asia,,Km2,35.000074,104.999927,2000.0,,,,
196,1956,Natural,Meteorological,Storm,Tropical cyclone,Storm / Tropical cyclone,Guadeloupe,Caribbean,Americas,,Kph,16.2528827,-61.5686855,,,,,
197,1956,Natural,Meteorological,Storm,Tropical cyclone,Storm / Tropical cyclone,Indonesia,South-Eastern Asia,Asia,,Kph,-2.4833826,117.8902853,300.0,,,,
198,1956,Natural,Hydrological,Landslide,Landslide,Landslide,India,Southern Asia,Asia,,,22.3511148,78.6677428,27.0,,,,
199,1956,Natural,Meteorological,Storm,Tropical cyclone,Storm / Tropical cyclone,India,Southern Asia,Asia,"Parganas, Midnapore (West Bengal)",Kph,22.4671958,87.17500550608798,,,1000000.0,,1000000.0
200,1956,Natural,Hydrological,Flood,Flood,Flood,India,Southern Asia,Asia,"Gujarat, Saurashtra, Kutch",Km2,38.910548,-103.8693974,,,,2000.0,2000.0
201,1956,Natural,Hydrological,Flood,Flood,Flood,India,Southern Asia,Asia,"Bihar, Uttar Pradesh",Km2,27.2231459,78.0186903,100.0,,,75000.0,75000.0
202,1956,Natural,Hydrological,Flood,Flood,Flood,India,Southern Asia,Asia,,Km2,22.3511148,78.6677428,50.0,,,,
203,1957,Natural,Hydrological,Flood,Flood,Flood,Brazil,South America,Americas,,Km2,-10.3333333,-53.2,112.0,,,,
204,1957,Natural,Hydrological,Flood,Flood,Flood,China,Eastern Asia,Asia,,Km2,35.000074,104.999927,560.0,,,,
205,1957,Natural,Hydrological,Flood,Flood,Flood,Spain,Southern Europe,Europe,,Km2,39.3260685,-4.8379791,77.0,,,,
206,1957,Natural,Meteorological,Storm,Tropical cyclone,Storm / Tropical cyclone,Hong Kong,Eastern Asia,Asia,,Kph,22.2793278,114.1628131,8.0,111.0,,,111.0
207,1957,Natural,Hydrological,Flood,Flood,Flood,India,Southern Asia,Asia,"Madya Pradesh, Uttar Pradesh",Km2,27.1303344,80.859666,42.0,,10000.0,,10000.0
208,1957,Natural,Hydrological,Flood,Flood,Flood,India,Southern Asia,Asia,,Km2,22.3511148,78.6677428,92.0,,,,
209,1957,Natural,Hydrological,Flood,Flood,Flood,India,Southern Asia,Asia,,Km2,22.3511148,78.6677428,53.0,,,,
210,1958,Natural,Hydrological,Flood,Flood,Flood,Argentina,South America,Americas,,Km2,-34.9964963,-64.9672817,360.0,,,,
211,1958,Natural,Meteorological,Storm,Tropical cyclone,Storm / Tropical cyclone,Bangladesh,Southern Asia,Asia,East Meghna Estuary,Kph,24.4769288,90.2934413,,,,,
212,1958,Natural,Meteorological,Storm,Tropical cyclone,Storm / Tropical cyclone,Bangladesh,Southern Asia,Asia,,Kph,24.4769288,90.2934413,500.0,,,,
213,1958,Natural,Meteorological,Storm,Tropical cyclone,Storm / Tropical cyclone,Fiji,Melanesia,Oceania,Lau Islands,Kph,-5.8231393,151.3276047,,,,,
214,1958,Natural,Hydrological,Flood,Riverine flood,Flood / Riverine flood,France,Western Europe,Europe,"Gard, Hérault",Km2,43.9972272,3.6764504,35.0,,,,
215,1958,Natural,Hydrological,Landslide,Landslide,Landslide,India,Southern Asia,Asia,,,22.3511148,78.6677428,52.0,,,,
216,1958,Natural,Meteorological,Extreme temperature ,Heat wave,Extreme temperature  / Heat wave,India,Southern Asia,Asia,,°C,22.3511148,78.6677428,651.0,,,,
217,1958,Natural,Meteorological,Storm,Storm,Storm,India,Southern Asia,Asia,Vishakhapatam,Kph,22.3511148,78.6677428,,,20000.0,,20000.0
218,1958,Natural,Hydrological,Flood,Flood,Flood,India,Southern Asia,Asia,Madras city,Km2,51.6181727,-3.9835407,5.0,,5000.0,,5000.0
219,1959,Natural,Hydrological,Flood,Flood,Flood,China,Eastern Asia,Asia,North,Km2,40.3736611,127.0870417,2000000.0,,,,
220,1959,Natural,Meteorological,Storm,Storm,Storm,Brazil,South America,Americas,,Kph,-10.3333333,-53.2,59.0,,,,
221,1959,Natural,Hydrological,Flood,Flood,Flood,Brazil,South America,Americas,,Km2,-10.3333333,-53.2,100.0,,,,
222,1959,Natural,Meteorological,Storm,Convective storm,Winter storm/Blizzard,Canada,Northern America,Americas,Newfoundland,Kph,49.12120935,-56.69629621274099,6.0,,,,
223,1959,Natural,Meteorological,Storm,Tropical cyclone,Storm / Tropical cyclone,China,Eastern Asia,Asia,,Kph,35.000074,104.999927,1064.0,,,,
224,1959,Natural,Meteorological,Storm,Tropical cyclone,Storm / Tropical cyclone,China,Eastern Asia,Asia,Fukien province,Kph,24.4461659,118.0666993,720.0,,,,
225,1959,Natural,Hydrological,Flood,Flood,Flood,China,Eastern Asia,Asia,,Km2,35.000074,104.999927,187.0,,,,
226,1959,Natural,Hydrological,Flood,Flood,Flood,Colombia,South America,Americas,,Km2,4.099917,-72.9088133,184.0,,,,
227,1959,Natural,Meteorological,Storm,Storm,Storm,Hong Kong,Eastern Asia,Asia,,Kph,22.2793278,114.1628131,43.0,,,,
228,1959,Natural,Hydrological,Flood,Flood,Flood,Haiti,Caribbean,Americas,,Km2,19.1399952,-72.3570972,50.0,,,,
229,1959,Natural,Hydrological,Flood,Flood,Flood,India,Southern Asia,Asia,Kutch,Km2,38.910548,-103.8693974,17.0,,13000.0,,13000.0
230,1959,Natural,Hydrological,Flood,Flood,Flood,India,Southern Asia,Asia,,Km2,22.3511148,78.6677428,104.0,,,,
231,1959,Natural,Hydrological,Flood,Flood,Flood,India,Southern Asia,Asia,,Km2,22.3511148,78.6677428,500.0,,,,
232,1960,Natural,Geophysical,Earthquake,Tsunami,Earthquake / Tsunami,Chile,South America,Americas,"Puerto Montt, Valdivia (Arauco peninsula)",Richter,-38.143,-73.407,6000.0,3000.0,2000000.0,,2003000.0
233,1960,Natural,Meteorological,Storm,Tropical cyclone,Storm / Tropical cyclone,Anguilla,Caribbean,Americas,South Hille and West End,Kph,18.1954947,-63.0750234,5.0,250.0,,1000.0,1250.0
234,1960,Natural,Meteorological,Storm,Tropical cyclone,Storm / Tropical cyclone,Netherlands Antilles,Caribbean,Americas,"St Martin Isl., Saba",Kph,5.4257359,117.0326392,,,,,
235,1960,Natural,Meteorological,Storm,Tropical cyclone,Storm / Tropical cyclone,Antigua and Barbuda,Caribbean,Americas,,Kph,17.2234721,-61.9554608,2.0,,,,
236,1960,Natural,Meteorological,Storm,Tropical cyclone,Storm / Tropical cyclone,Bangladesh,Southern Asia,Asia,"Noakhali, Off-Shore Islands",Kph,24.4769288,90.2934413,3000.0,,,,
237,1960,Natural,Meteorological,Storm,Tropical cyclone,Storm / Tropical cyclone,Bangladesh,Southern Asia,Asia,"Chittagong area, Off-Shore Islands",Kph,24.4769288,90.2934413,5149.0,,200000.0,,200000.0
238,1960,Natural,Hydrological,Flood,Flood,Flood,Bangladesh,Southern Asia,Asia,,Km2,24.4769288,90.2934413,10000.0,,,,
239,1960,Natural,Meteorological,Storm,Tropical cyclone,Storm / Tropical cyclone,Hong Kong,Eastern Asia,Asia,"(Aberdeen, Stanley, Cheung Chau",Kph,22.209624650000002,114.0295690978345,45.0,127.0,15000.0,,15127.0
240,1960,Natural,Climatological,Drought,Drought,Drought,Hong Kong,Eastern Asia,Asia,,Km2,22.2793278,114.1628131,,,,,
241,1960,Natural,Hydrological,Flood,Flood,Flood,Hong Kong,Eastern Asia,Asia,"Yuen Long, Sheung Shui (New Territories)",Km2,22.44184095,114.0188738171998,15.0,,7000.0,,7000.0
242,1961,Natural,Meteorological,Storm,Tropical cyclone,Storm / Tropical cyclone,Bangladesh,Southern Asia,Asia,Megna Eestuary,Kph,24.4769288,90.2934413,11000.0,,,,
243,1961,Natural,Meteorological,Storm,Tropical cyclone,Storm / Tropical cyclone,Bangladesh,Southern Asia,Asia,Chittagong,Kph,22.3336887,91.8342162,,,,,
244,1961,Natural,Meteorological,Storm,Storm,Storm,Bangladesh,Southern Asia,Asia,,Kph,24.4769288,90.2934413,266.0,,,,
245,1961,Natural,Meteorological,Storm,Tropical cyclone,Storm / Tropical cyclone,Belize,Central America,Americas,Belize city other towns,Kph,16.8259793,-88.7600927,275.0,,,,
246,1961,Natural,Climatological,Drought,Drought,Drought,Canada,Northern America,Americas,Western Canada,Km2,45.9416314,-74.2284004,,,,,
247,1961,Natural,Hydrological,Landslide,Landslide,Landslide,France,Western Europe,Europe,Clamart (Hauts-de-Seine),,48.800368,2.2630292,21.0,,,,
248,1961,Natural,Meteorological,Storm,Tropical cyclone,Storm / Tropical cyclone,Greece,Southern Europe,Europe,,Kph,38.9953683,21.9877132,43.0,,,,
249,1961,Natural,Meteorological,Storm,Tropical cyclone,Storm / Tropical cyclone,Hong Kong,Eastern Asia,Asia,,Kph,22.2793278,114.1628131,7.0,,,1171.0,1171.0
250,1961,Natural,Hydrological,Flood,Flood,Flood,Hong Kong,Eastern Asia,Asia,Tsuen Wan area (New Territories),Km2,22.37023095,114.11349191651459,,,135.0,,135.0
251,1961,Natural,Meteorological,Storm,Tropical cyclone,Storm / Tropical cyclone,Honduras,Central America,Americas,,Kph,15.2572432,-86.0755145,275.0,,,,
252,1961,Natural,Meteorological,Extreme temperature ,Cold wave,Extreme temperature  / Cold wave,India,Southern Asia,Asia,,°C,22.3511148,78.6677428,400.0,,,,
253,1962,Natural,Meteorological,Storm,Storm,Storm,Canada,Northern America,Americas,,Kph,61.0666922,-107.991707,33.0,,,,
254,1962,Natural,Hydrological,Flood,Flood,Flood,Colombia,South America,Americas,,Km2,4.099917,-72.9088133,135.0,,,,
255,1962,Natural,Meteorological,Storm,Convective storm,Severe storm,Germany Fed Rep,Western Europe,Europe,"Hamburg, North Sea",Kph,56.74123355,2.8911717166880475,347.0,,,,
256,1962,Natural,Hydrological,Flood,Flash flood,Flood / Flash flood,Spain,Southern Europe,Europe,Barcelona,Km2,41.3828939,2.1774322,445.0,,,,
257,1962,Natural,Meteorological,Storm,Tropical cyclone,Storm / Tropical cyclone,Guam,Micronesia,Oceania,,Kph,13.450125700000001,144.75755102972062,6.0,,,,
258,1962,Natural,Meteorological,Storm,Tropical cyclone,Storm / Tropical cyclone,Hong Kong,Eastern Asia,Asia,"Tai Po, Shatin, Sha Tau Kok areas",Kph,22.2793278,114.1628131,183.0,,,,
259,1962,Natural,Hydrological,Flood,Flood,Flood,Haiti,Caribbean,Americas,,Km2,19.1399952,-72.3570972,26.0,,,,
260,1963,Natural,Hydrological,Flood,Flood,Flood,Afghanistan,Southern Asia,Asia,,Km2,33.7680065,66.2385139,107.0,,,,
261,1963,Natural,Meteorological,Extreme temperature ,Cold wave,Extreme temperature  / Cold wave,Belgium,Western Europe,Europe,,°C,50.6402809,4.6667145,12.0,,,,
262,1963,Natural,Meteorological,Storm,Tropical cyclone,Storm / Tropical cyclone,Bangladesh,Southern Asia,Asia,"Chittagong, Noakhali",Kph,22.72145365,91.06247879347157,22000.0,,1000000.0,,1000000.0
263,1963,Natural,Meteorological,Storm,Tropical cyclone,Storm / Tropical cyclone,Bangladesh,Southern Asia,Asia,,Kph,24.4769288,90.2934413,79.0,,,,
264,1963,Natural,Hydrological,Flood,Flood,Flood,Bangladesh,Southern Asia,Asia,,Km2,24.4769288,90.2934413,30.0,,,,
265,1963,Natural,Meteorological,Storm,Tropical cyclone,Storm / Tropical cyclone,Bahamas (the),Caribbean,Americas,,Kph,51.5071471,-0.14865011413427567,,,,,
266,1963,Natural,Meteorological,Storm,Tropical cyclone,Storm / Tropical cyclone,Cuba,Caribbean,Americas,All country,Kph,31.5406536,-84.1944147,1750.0,,,,
267,1963,Natural,Meteorological,Storm,Tropical cyclone,Storm / Tropical cyclone,Dominica,Caribbean,Americas,,Kph,19.0974031,-70.3028026,,,,,
268,1963,Natural,Meteorological,Storm,Tropical cyclone,Storm / Tropical cyclone,Dominican Republic (the),Caribbean,Americas,,Kph,38.9135752,-77.0483831,400.0,,,,
269,1963,Natural,Hydrological,Flood,Flood,Flood,Algeria,Northern Africa,Africa,Southern,Km2,22.21926895,114.2252233573989,,,45400.0,,45400.0
270,1963,Natural,Meteorological,Storm,Tropical cyclone,Storm / Tropical cyclone,Grenada,Caribbean,Americas,,Kph,12.1360374,-61.6904045,6.0,,,,
271,1963,Natural,Meteorological,Storm,Tropical cyclone,Storm / Tropical cyclone,Haiti,Caribbean,Americas,South West End Hispaniola,Kph,19.1399952,-72.3570972,5000.0,,,,
272,1963,Natural,Biological,Epidemic,Parasitic disease,Epidemic / Parasitic disease,Haiti,Caribbean,Americas,,Vaccinated,19.1399952,-72.3570972,,,2724.0,,2724.0
273,1963,Natural,Hydrological,Flood,Flood,Flood,Haiti,Caribbean,Americas,Grand Riviare du Nord,Km2,19.1399952,-72.3570972,500.0,,,,
274,1963,Natural,Meteorological,Storm,Tropical cyclone,Storm / Tropical cyclone,India,Southern Asia,Asia,,Kph,22.3511148,78.6677428,112.0,,,,
275,1964,Natural,Climatological,Drought,Drought,Drought,India,Southern Asia,Asia,Mysore,Km2,12.3051828,76.6553609,,,166000.0,,166000.0
276,1964,Natural,Meteorological,Storm,Tropical cyclone,Storm / Tropical cyclone,Bangladesh,Southern Asia,Asia,Jessore district,Kph,23.084244400000003,89.12469365626626,300.0,,800.0,,800.0
277,1964,Natural,Hydrological,Flood,Flood,Flood,Bangladesh,Southern Asia,Asia,"Rangpur, Comilla",Km2,23.4610615,91.1808748,,,1000000.0,,1000000.0
278,1964,Natural,Hydrological,Flood,Flood,Flood,Brazil,South America,Americas,Bahia state,Km2,40.7113887,-73.9449741,100.0,,100000.0,,100000.0
279,1964,Natural,Hydrological,Flood,Flood,Flood,Brazil,South America,Americas,Northeastern states,Km2,43.039163,-87.9030526,,,15000.0,,15000.0
280,1964,Natural,Hydrological,Flood,Flood,Flood,Brazil,South America,Americas,"Paraiba, Rio Grande Do Norte",Km2,-6.4692379,-37.0973079,,,5000.0,,5000.0
281,1964,Natural,Meteorological,Storm,Tropical cyclone,Storm / Tropical cyclone,China,Eastern Asia,Asia,,Kph,35.000074,104.999927,686.0,,,,
282,1964,Natural,Meteorological,Storm,Tropical cyclone,Storm / Tropical cyclone,Cuba,Caribbean,Americas,,Kph,23.0131338,-80.8328748,,,,,
283,1964,Natural,Meteorological,Storm,Tropical cyclone,Storm / Tropical cyclone,Dominican Republic (the),Caribbean,Americas," Barahona, Neiba Bay",Kph,26.518151,-81.861515,7.0,,,,
284,1964,Natural,Climatological,Drought,Drought,Drought,Ecuador,South America,Americas,,Km2,-1.3397668,-79.3666965,,,600000.0,,600000.0
285,1964,Natural,Hydrological,Flood,Flood,Flood,Fiji,Melanesia,Oceania,Viti Levu,Km2,-17.793383050000003,177.9782252066411,1.0,,8000.0,10000.0,18000.0
286,1964,Natural,Meteorological,Storm,Tropical cyclone,Storm / Tropical cyclone,Guadeloupe,Caribbean,Americas,,Kph,16.2528827,-61.5686855,14.0,100.0,10000.0,,10100.0
287,1964,Natural,Meteorological,Storm,Tropical cyclone,Storm / Tropical cyclone,Hong Kong,Eastern Asia,Asia,,Kph,22.2793278,114.1628131,44.0,300.0,,,300.0
288,1964,Natural,Meteorological,Storm,Tropical cyclone,Storm / Tropical cyclone,Hong Kong,Eastern Asia,Asia,,Kph,22.2793278,114.1628131,26.0,85.0,,,85.0
289,1964,Natural,Meteorological,Storm,Tropical cyclone,Storm / Tropical cyclone,Haiti,Caribbean,Americas,Les Cayes area,Kph,19.1399952,-72.3570972,100.0,,80000.0,,80000.0
290,1964,Natural,Meteorological,Storm,Tropical cyclone,Storm / Tropical cyclone,India,Southern Asia,Asia,Rameswaram,Kph,9.2388621,79.33260795536674,500.0,,,,
291,1964,Natural,Climatological,Drought,Drought,Drought,India,Southern Asia,Asia,"Rajasthan, center",Km2,26.88145545,75.79912922712619,,,500000.0,,500000.0
292,1965,Natural,Climatological,Drought,Drought,Drought,India,Southern Asia,Asia,Nationwide except south,Km2,22.3511148,78.6677428,1500000.0,,100000000.0,,100000000.0
293,1965,Natural,Hydrological,Landslide,Landslide,Landslide,Argentina,South America,Americas,"Mendoza, Las Cuevas",,-32.8135179,-70.0485462,45.0,,,,
294,1965,Natural,Meteorological,Storm,Tropical cyclone,Storm / Tropical cyclone,Bangladesh,Southern Asia,Asia,Barisal district,Kph,22.7562851,90.41098391553726,36000.0,600000.0,10000000.0,5000000.0,15600000.0
295,1965,Natural,Meteorological,Storm,Tropical cyclone,Storm / Tropical cyclone,Bangladesh,Southern Asia,Asia,,Kph,24.4769288,90.2934413,12047.0,,,,
296,1965,Natural,Meteorological,Storm,Tropical cyclone,Storm / Tropical cyclone,Bangladesh,Southern Asia,Asia,Chittagong to Teknaf,Kph,20.8684566,92.298748,874.0,,60000.0,,60000.0
297,1965,Natural,Hydrological,Landslide,Landslide,Landslide,Bulgaria,Eastern Europe,Europe,Rila mountains,,42.6073975,25.4856617,11.0,,,,
298,1965,Natural,Meteorological,Storm,Tropical cyclone,Storm / Tropical cyclone,Bahamas (the),Caribbean,Americas,"Eleuthera, Abaco, Andr",Kph,28.0000272,2.9999825,,,1200.0,,1200.0
299,1965,Natural,Hydrological,Flood,Flash flood,Flood / Flash flood,Bolivia (Plurinational State of),South America,Americas,Cangalli,Km2,-15.5598739,-68.0044677,40.0,,500.0,,500.0
300,1965,Natural,Hydrological,Flood,Flood,Flood,Brazil,South America,Americas,"Pernambuco, Recife",Km2,-8.0584933,-34.8848193,16.0,,30000.0,,30000.0
301,1965,Natural,Hydrological,Flood,Flood,Flood,Brazil,South America,Americas,South,Km2,36.638392,127.6961188,6.0,,200000.0,40000.0,240000.0
302,1965,Natural,Climatological,Drought,Drought,Drought,Botswana,Southern Africa,Africa,Nationwide,Km2,51.5382399,-1.776966675,,,60000.0,,60000.0
303,1965,Natural,Hydrological,Landslide,Landslide,Landslide,Canada,Northern America,Americas,Granuc Mine (British Columbia),,61.0666922,-107.991707,26.0,22.0,,,22.0
304,1965,Natural,Hydrological,Landslide,Avalanche,Landslide / Avalanche,Switzerland,Western Europe,Europe,Saas-Fee,,46.107342,7.9247055,90.0,,,,
305,1965,Natural,Hydrological,Landslide,Landslide,Landslide,Chile,South America,Americas,,,-31.7613365,-71.3187697,26.0,,,,
306,1965,Natural,Hydrological,Flood,Flood,Flood,Chile,South America,Americas,Antofagasta to Aisen,Km2,-43.8947015,-73.7454363,600.0,,350000.0,25000.0,375000.0
307,1965,Natural,Meteorological,Storm,Storm,Storm,Chile,South America,Americas,,Kph,-31.7613365,-71.3187697,58.0,,,,
308,1965,Natural,Climatological,Drought,Drought,Drought,China,Eastern Asia,Asia,"Central, South-West",Km2,51.4619835,-2.3195431949695267,,,,,
309,1965,Natural,Hydrological,Landslide,Landslide,Landslide,Colombia,South America,Americas,Manizales,,5.0668907,-75.5066661,32.0,,,,
310,1965,Natural,Climatological,Wildfire,Forest fire,Wildfire / Forest fire,Dominican Republic (the),Caribbean,Americas,Pico Duarte,Km2,19.022993,-70.9980479,,,,,
311,1965,Natural,Hydrological,Flood,Flood,Flood,Ecuador,South America,Americas,Daule river Valley,Km2,-1.3397668,-79.3666965,,,50000.0,,50000.0
312,1965,Natural,Climatological,Drought,Drought,Drought,Ethiopia,Eastern Africa,Africa,Nationwide,Km2,51.5382399,-1.776966675,2000.0,,1500000.0,,1500000.0
313,1965,Natural,Meteorological,Storm,Tropical cyclone,Storm / Tropical cyclone,Fiji,Melanesia,Oceania,Throughout Islands,Kph,-18.1239696,179.0122737,2.0,,10000.0,,10000.0
314,1965,Natural,Meteorological,Storm,Tropical cyclone,Storm / Tropical cyclone,Hong Kong,Eastern Asia,Asia,New Territories,Kph,22.4300716,114.0724197,5.0,3.0,,200.0,203.0
315,1965,Natural,Biological,Epidemic,Viral disease,Epidemic / Viral disease,Honduras,Central America,Americas,San Pedro Sula area,Vaccinated,15.474748550000001,-88.02773730284594,7.0,,170.0,,170.0
316,1965,Natural,Climatological,Drought,Drought,Drought,Honduras,Central America,Americas,"South Valle, Choluteca",Km2,13.3714203,-87.071395839806,,,100000.0,,100000.0
317,1965,Natural,Hydrological,Flood,Flood,Flood,Honduras,Central America,Americas,"Central, South",Km2,-33.88445645,151.2058642022614,,,6000.0,,6000.0
318,1965,Natural,Meteorological,Extreme temperature ,Heat wave,Extreme temperature  / Heat wave,India,Southern Asia,Asia,,°C,22.3511148,78.6677428,100.0,,,,
319,1966,Natural,Climatological,Drought,Drought,Drought,Indonesia,South-Eastern Asia,Asia,"Lombok, South",Km2,52.2444332,4.4348704,8000.0,,204000.0,,204000.0
320,1966,Natural,Hydrological,Flood,Riverine flood,Flood / Riverine flood,Argentina,South America,Americas,North West,Km2,-26.1347819,25.6546729,62.0,,120000.0,,120000.0
321,1966,Natural,Meteorological,Storm,Tropical cyclone,Storm / Tropical cyclone,American Samoa,Polynesia,Oceania,,Kph,-14.297124,-170.7131481,90.0,,,,
322,1966,Natural,Meteorological,Storm,Tropical cyclone,Storm / Tropical cyclone,Antigua and Barbuda,Caribbean,Americas,,Kph,17.2234721,-61.9554608,,,,,
323,1966,Natural,Climatological,Drought,Drought,Drought,Burkina Faso,Western Africa,Africa,Nationwide,Km2,51.5382399,-1.776966675,,,,,
324,1966,Natural,Meteorological,Storm,Tropical cyclone,Storm / Tropical cyclone,Bangladesh,Southern Asia,Asia,"Chittagong, Sandwip",Kph,22.5005181,91.4815468867368,850.0,,1500000.0,300000.0,1800000.0
325,1966,Natural,Hydrological,Flood,Flood,Flood,Bangladesh,Southern Asia,Asia,Sylhet,Km2,24.89922,91.8685271,39.0,,500000.0,,500000.0
326,1966,Natural,Meteorological,Storm,Tropical cyclone,Storm / Tropical cyclone,Bahamas (the),Caribbean,Americas,"Nassau, Bimini",Kph,25.0579999,-77.345585,5.0,3.0,,,3.0
327,1966,Natural,Meteorological,Storm,Tropical cyclone,Storm / Tropical cyclone,Bahamas (the),Caribbean,Americas,,Kph,51.5071471,-0.14865011413427567,,,,,
328,1966,Natural,Hydrological,Flood,Riverine flood,Flood / Riverine flood,Bolivia (Plurinational State of),South America,Americas,,Km2,-17.0568696,-64.9912286,,,5500.0,,5500.0
329,1966,Natural,Hydrological,Flood,Flood,Flood,Bolivia (Plurinational State of),South America,Americas,"Puerto Grether, Bermejo, Vicchoca, Totora",Km2,-17.7355219,-65.1913604,14.0,,600.0,,600.0
330,1966,Natural,Hydrological,Landslide,Landslide,Landslide,Brazil,South America,Americas,Rio de Janeiro,,-22.9110137,-43.2093727,350.0,,4000000.0,,4000000.0
331,1966,Natural,Hydrological,Flood,Flood,Flood,Brazil,South America,Americas,"Rio, Guanabara",Km2,-19.820868,-43.3552533,373.0,1700.0,51881.0,,53581.0
332,1966,Natural,Hydrological,Flood,Flood,Flood,Brazil,South America,Americas,"Salvador, Recife",Km2,-12.9903804,-38.61962670455972,147.0,57.0,125500.0,29000.0,154557.0
333,1966,Natural,Meteorological,Storm,Storm,Storm,Brazil,South America,Americas,,Kph,-10.3333333,-53.2,36.0,,,,
334,1966,Natural,Hydrological,Flood,Flood,Flood,Brazil,South America,Americas,,Km2,-10.3333333,-53.2,40.0,,,,
335,1966,Natural,Meteorological,Storm,Convective storm,Winter storm/Blizzard,Canada,Northern America,Americas,Winnipeg (Manitoba),Kph,49.8955367,-97.1384584,,,,,
336,1966,Natural,Meteorological,Storm,Tropical cyclone,Storm / Tropical cyclone,Cuba,Caribbean,Americas,Guantanamo,Kph,20.1431797,-75.2034783,5.0,30.0,156000.0,18000.0,174030.0
337,1966,Natural,Meteorological,Storm,Tropical cyclone,Storm / Tropical cyclone,Dominican Republic (the),Caribbean,Americas,"South East coast, Barhona",Kph,38.9135752,-77.0483831,74.0,442.0,7000.0,5500.0,12942.0
338,1966,Natural,Hydrological,Flood,Flood,Flood,Algeria,Northern Africa,Africa,West El-Asnam,Km2,36.3241447,3.9938752,57.0,12.0,20000.0,15900.0,35912.0
339,1966,Natural,Hydrological,Landslide,Landslide,Landslide,Ecuador,South America,Americas,Quito-Santo Domingo road,,-1.3397668,-79.3666965,50.0,,,,
340,1966,Natural,Hydrological,Landslide,Landslide,Landslide,United Kingdom of Great Britain and Northern Ireland (the),Northern Europe,Europe,"Aberfan, Wales",,51.6916974,-3.346164,140.0,,,,
341,1966,Natural,Meteorological,Storm,Tropical cyclone,Storm / Tropical cyclone,Guadeloupe,Caribbean,Americas,,Kph,16.2528827,-61.5686855,25.0,,10000.0,,10000.0
342,1966,Natural,Meteorological,Storm,Convective storm,Lightning/Thunderstorms,Hong Kong,Eastern Asia,Asia,,Kph,22.2793278,114.1628131,15.0,,,,
343,1966,Natural,Hydrological,Landslide,Landslide,Landslide,Hong Kong,Eastern Asia,Asia,,,22.2793278,114.1628131,64.0,,,,
344,1966,Natural,Climatological,Drought,Drought,Drought,Hong Kong,Eastern Asia,Asia,,Km2,22.2793278,114.1628131,,,,,
345,1966,Natural,Hydrological,Flood,Flood,Flood,Hong Kong,Eastern Asia,Asia,,Km2,22.2793278,114.1628131,65.0,68.0,8561.0,2672.0,11301.0
346,1966,Natural,Meteorological,Storm,Tropical cyclone,Storm / Tropical cyclone,Haiti,Caribbean,Americas,South Hispaniola,Kph,51.5062528,-0.12190638391839204,480.0,881.0,67000.0,,67881.0
347,1966,Natural,Hydrological,Flood,Riverine flood,Flood / Riverine flood,Indonesia,South-Eastern Asia,Asia,"Central, East Java",Km2,26.5474615,-77.0490529,176.0,100.0,524000.0,,524100.0
348,1966,Natural,Meteorological,Storm,Tropical cyclone,Storm / Tropical cyclone,India,Southern Asia,Asia,Madras state,Kph,44.6219179,-121.1287341,18.0,,150000.0,,150000.0
349,1967,Natural,Hydrological,Flood,Flood,Flood,Argentina,South America,Americas,Buenos Aires suburbs,Km2,40.9540993,-5.7063986,56.0,,142000.0,70000.0,212000.0
350,1967,Natural,Climatological,Wildfire,"Land fire (Brush, Bush, Pasture)","Wildfire / Land fire (Brush, Bush, Pasture)",Australia,Australia and New Zealand,Oceania,Hobart (Tasmania),Km2,-42.8825088,147.3281233,62.0,100.0,3000.0,,3100.0
351,1967,Natural,Climatological,Drought,Drought,Drought,Australia,Australia and New Zealand,Oceania,South-East,Km2,-24.9902332,25.726402352052464,600.0,,,,
352,1967,Natural,Meteorological,Storm,Convective storm,Tornado,Belgium,Western Europe,Europe,"Oostmalle, Ypres region",Kph,50.85169675,2.891473683275896,,100.0,,,100.0
353,1967,Natural,Meteorological,Storm,Tropical cyclone,Storm / Tropical cyclone,Bangladesh,Southern Asia,Asia,Dacca,Kph,23.7644025,90.389015,50.0,200.0,,,200.0
354,1967,Natural,Meteorological,Storm,Tropical cyclone,Storm / Tropical cyclone,Bangladesh,Southern Asia,Asia,"South, near Cox's Bazar",Kph,21.62637585,92.07692079108622,41.0,,,,
355,1967,Natural,Hydrological,Landslide,Landslide,Landslide,Brazil,South America,Americas,Rio de Janeiro,,-22.9110137,-43.2093727,436.0,,,,
356,1967,Natural,Hydrological,Flood,Flood,Flood,Brazil,South America,Americas,"(1) Rio, Sao Paulo, Guanab, (2) Rio, Sao Paulo, (3) Rio, Guanabara, (4) Sao Paulo, Caraguatauba",Km2,-10.3333333,-53.2,785.0,1257.0,20836.0,,22093.0
357,1967,Natural,Hydrological,Flood,Flood,Flood,Brazil,South America,Americas,North-East,Km2,54.73141115,-1.7919813357694694,,,87000.0,,87000.0
358,1967,Natural,Hydrological,Flood,Flood,Flood,Brazil,South America,Americas,Porto Alegre,Km2,-30.0324999,-51.2303767,,,15000.0,,15000.0
359,1967,Natural,Hydrological,Flood,Flood,Flood,Brazil,South America,Americas,"South, South West Bahia",Km2,-22.6638837,-53.2060332,35.0,50.0,50000.0,15400.0,65450.0
360,1967,Natural,Hydrological,Landslide,Landslide,Landslide,Congo (the),Middle Africa,Africa,Kivu province,,-2.0418753499999998,29.227714648829384,154.0,,500.0,168.0,668.0
361,1967,Natural,Meteorological,Storm,Tropical cyclone,Storm / Tropical cyclone,Cook Islands (the),Polynesia,Oceania,"Rarotonga, Mangaia",Kph,-21.20774185,-159.76957679443302,,,,,
362,1967,Natural,Hydrological,Flood,Flood,Flood,Algeria,Northern Africa,Africa,Aures Samura Constantine,Km2,28.0000272,2.9999825,20.0,,30000.0,,30000.0
363,1967,Natural,Biological,Epidemic,Viral disease,Epidemic / Viral disease,Ecuador,South America,Americas,Guayaquil areas,Vaccinated,-2.1906444499999997,-79.87876252810543,36.0,,528.0,,528.0
364,1967,Natural,Hydrological,Flood,Flood,Flood,Ecuador,South America,Americas,Milagro,Km2,42.2418183,-1.7628016,,100.0,20000.0,400.0,20500.0
365,1967,Natural,Meteorological,Storm,Convective storm,Tornado,France,Western Europe,Europe,North,Kph,40.3736611,127.0870417,5.0,,,,
366,1967,Natural,Meteorological,Storm,Tropical cyclone,Storm / Tropical cyclone,Hong Kong,Eastern Asia,Asia,,Kph,22.2793278,114.1628131,,3.0,1500.0,,1503.0
367,1967,Natural,Hydrological,Flood,Flood,Flood,Indonesia,South-Eastern Asia,Asia,East Java,Km2,-7.6977397,112.4914199,,,55000.0,,55000.0
368,1967,Natural,Hydrological,Flood,Flood,Flood,Indonesia,South-Eastern Asia,Asia,Jakarta,Km2,-6.1753942,106.827183,,,102000.0,40000.0,142000.0
369,1967,Natural,Hydrological,Flood,Flood,Flood,Indonesia,South-Eastern Asia,Asia,Ambon,Km2,47.55539425,-2.554524246013524,,,7000.0,,7000.0
370,1967,Natural,Hydrological,Flood,Flood,Flood,Indonesia,South-Eastern Asia,Asia,Central Java,Km2,-7.3032412,110.0044145,160.0,,,,
371,1967,Natural,Meteorological,Storm,Tropical cyclone,Storm / Tropical cyclone,India,Southern Asia,Asia,Orissa,Kph,20.5431241,84.6897321,1000.0,,,,
372,1967,Natural,Biological,Epidemic,Viral disease,Epidemic / Viral disease,India,Southern Asia,Asia,,Vaccinated,22.3511148,78.6677428,3029.0,,13576.0,,13576.0
373,1968,Natural,Climatological,Wildfire,"Land fire (Brush, Bush, Pasture)","Wildfire / Land fire (Brush, Bush, Pasture)",Australia,Australia and New Zealand,Oceania,New South Wales,Km2,-31.8759835,147.2869493,12.0,,1000.0,800.0,1800.0
374,1968,Natural,Meteorological,Storm,Tropical cyclone,Storm / Tropical cyclone,Bangladesh,Southern Asia,Asia,"Madaripur, Faridpur",Kph,28.19334815,79.54195008128515,118.0,1045.0,15093.0,,16138.0
375,1968,Natural,Hydrological,Flood,Flood,Flood,Bangladesh,Southern Asia,Asia,"Nationwide, 5 Northern districts",Km2,30.03882,31.519225,221.0,100000.0,14910892.0,878724.0,15889616.0
376,1968,Natural,Hydrological,Flood,Flood,Flood,Bolivia (Plurinational State of),South America,Americas,Rio Grande Valley,Km2,35.0113035,-106.6763181,24.0,200.0,20000.0,6000.0,26200.0
377,1968,Natural,Meteorological,Extreme temperature ,Heat wave,Extreme temperature  / Heat wave,Brazil,South America,Americas,,°C,-10.3333333,-53.2,113.0,,,,
378,1968,Natural,Climatological,Drought,Drought,Drought,Botswana,Southern Africa,Africa,Countrywide,Km2,52.088299199999994,-2.157944832014875,,,60000.0,,60000.0
379,1968,Natural,Hydrological,Landslide,Avalanche,Landslide / Avalanche,Switzerland,Western Europe,Europe,Alps,,45.9081401,9.141582381412086,20.0,,22.0,,22.0
380,1968,Natural,Climatological,Drought,Drought,Drought,Chile,South America,Americas,"Nationwide, Central Valley, Central Chile",Km2,-18.3602663,-69.9587813,,,120000.0,,120000.0
381,1968,Natural,Meteorological,Storm,Storm,Storm,Chile,South America,Americas,North coast,Kph,53.9025867,-130.09907310011187,,,,,
382,1968,Natural,Meteorological,Storm,Storm,Storm,Colombia,South America,Americas,Guadalupe (Huila department),Kph,4.099917,-72.9088133,,,1020.0,63.0,1083.0
383,1968,Natural,Meteorological,Storm,Tropical cyclone,Storm / Tropical cyclone,Cuba,Caribbean,Americas,,Kph,23.0131338,-80.8328748,,,,,
384,1968,Natural,Meteorological,Storm,Convective storm,Tornado,Germany Fed Rep,Western Europe,Europe,P Forzheim,Kph,51.1638175,10.4478313,2.0,,,,
385,1968,Natural,Climatological,Drought,Drought,Drought,Dominican Republic (the),Caribbean,Americas,Nationwide,Km2,51.5382399,-1.776966675,,,240000.0,,240000.0
386,1968,Natural,Hydrological,Flood,Flood,Flood,Ethiopia,Eastern Africa,Africa,Kelafo,Km2,5.6572136,44.3496766,1.0,,10000.0,6000.0,16000.0
387,1968,Natural,Meteorological,Storm,Storm,Storm,United Kingdom of Great Britain and Northern Ireland (the),Northern Europe,Europe,Scotland,Kph,56.7861112,-4.1140518,20.0,,700.0,,700.0
388,1968,Natural,Hydrological,Flood,Flood,Flood,Ghana,Western Africa,Africa,"Central, South",Km2,-33.88445645,151.2058642022614,,,25000.0,,25000.0
389,1968,Natural,Climatological,Drought,Drought,Drought,Gambia (the),Western Africa,Africa,Northwestern region,Km2,65.46221895,-19.847101601531257,,,180000.0,,180000.0
390,1968,Natural,Hydrological,Landslide,Landslide,Landslide,Hong Kong,Eastern Asia,Asia,,,22.2793278,114.1628131,22.0,7.0,100.0,,107.0
391,1968,Natural,Meteorological,Storm,Tropical cyclone,Storm / Tropical cyclone,Hong Kong,Eastern Asia,Asia,"North Point, Tai Po Kan, Kwangtung, Tate's Cairn, Waglan Isl.",Kph,22.2793278,114.1628131,,4.0,3000.0,,3004.0
392,1968,Natural,Climatological,Wildfire,Forest fire,Wildfire / Forest fire,Hong Kong,Eastern Asia,Asia,,Km2,22.2793278,114.1628131,,,,,
393,1968,Natural,Climatological,Drought,Drought,Drought,Haiti,Caribbean,Americas,North West Peninsula,Km2,-43.6792518,173.0679112,,,210217.0,,210217.0
394,1968,Natural,Geophysical,Earthquake,Tsunami,Earthquake / Tsunami,Indonesia,South-Eastern Asia,Asia,Donggala,Richter,0.157,119.802,200.0,,,,
395,1968,Natural,Biological,Epidemic,Bacterial disease,Epidemic / Bacterial disease,Indonesia,South-Eastern Asia,Asia,Bojalali (Central Java),Vaccinated,-2.4833826,117.8902853,40.0,,94.0,,94.0
396,1968,Natural,Hydrological,Flood,Flood,Flood,Indonesia,South-Eastern Asia,Asia,East Java,Km2,-7.6977397,112.4914199,12.0,,150000.0,,150000.0
397,1968,Natural,Hydrological,Flood,Flash flood,Flood / Flash flood,India,Southern Asia,Asia,"(1) Rajasthan, Gujarat - (2) North-East, West Bengal, Assam",Km2,26.4073841,93.2551303,4892.0,,7500000.0,,7500000.0
398,1968,Natural,Hydrological,Landslide,Landslide,Landslide,India,Southern Asia,Asia,"Bihar, Bengal",,26.3223696,89.4592445,1000.0,,,,
399,1968,Natural,Meteorological,Storm,Tropical cyclone,Storm / Tropical cyclone,India,Southern Asia,Asia,"Ramanathapurum, Thanjavur",Kph,10.7860267,79.1381497,7.0,,15000.0,,15000.0
400,1969,Natural,Climatological,Drought,Drought,Drought,Afghanistan,Southern Asia,Asia,Paktia province,Km2,33.705724,69.4083555,,,48000.0,,48000.0
401,1969,Natural,Climatological,Drought,Drought,Drought,Benin,Western Africa,Africa,Entire country,Km2,9.5293472,2.2584408,,,115000.0,,115000.0
402,1969,Natural,Climatological,Drought,Drought,Drought,Burkina Faso,Western Africa,Africa,"East, North of Ougadougou. Northern section",Km2,35.1878534,33.3587477,,,975000.0,,975000.0
403,1969,Natural,Climatological,Drought,Drought,Drought,Cabo Verde,Western Africa,Africa,,Km2,16.0000552,-24.0083947,,,,,
404,1969,Natural,Climatological,Drought,Drought,Drought,Gambia (the),Western Africa,Africa,Countrywide,Km2,52.088299199999994,-2.157944832014875,,,150000.0,,150000.0
405,1969,Natural,Climatological,Drought,Drought,Drought,Guinea-Bissau,Western Africa,Africa,,Km2,11.815215,-15.2351044,,,,,
406,1969,Natural,Biological,Epidemic,Viral disease,Epidemic / Viral disease,Burkina Faso,Western Africa,Africa,Nationwide,Vaccinated,51.5382399,-1.776966675,304.0,,4550.0,,4550.0
407,1969,Natural,Biological,Epidemic,Viral disease,Epidemic / Viral disease,Burkina Faso,Western Africa,Africa,Ouagadougou and border,Vaccinated,12.0753083,-1.6880314,130.0,,,,
408,1969,Natural,Meteorological,Storm,Tropical cyclone,Storm / Tropical cyclone,Bangladesh,Southern Asia,Asia,"Dacca, Comilla",Kph,23.7841339,90.4122619,849.0,15530.0,160000.0,23943.0,199473.0
409,1969,Natural,Biological,Epidemic,Viral disease,Epidemic / Viral disease,Bolivia (Plurinational State of),South America,Americas,"Magdalena, Beni region",Vaccinated,9.3,38.61667,16.0,,24.0,,24.0
410,1969,Natural,Biological,Epidemic,Viral disease,Epidemic / Viral disease,Bolivia (Plurinational State of),South America,Americas,"Cochabamba, Sucre",Vaccinated,-16.6768051,-65.2999182,2.0,,53.0,,53.0
411,1969,Natural,Hydrological,Flood,Flash flood,Flood / Flash flood,Brazil,South America,Americas,North East,Km2,54.73141115,-1.7919813357694694,316.0,3221.0,17700.0,17384.0,38305.0
412,1969,Natural,Hydrological,Flood,Flood,Flood,China,Eastern Asia,Asia,Shantung province,Km2,35.000074,104.999927,,,,,
413,1969,Natural,Hydrological,Flood,Riverine flood,Flood / Riverine flood,Colombia,South America,Americas,Magdalena River area,Km2,4.099917,-72.9088133,,,70000.0,,70000.0
414,1969,Natural,Hydrological,Flood,Flood,Flood,Costa Rica,Central America,Americas,"Pacific coast, Central Meseta, Limon",Km2,44.202726,7.576336,7.0,23.0,4580.0,,4603.0
415,1969,Natural,Meteorological,Storm,Storm,Storm,Cyprus,Western Asia,Asia,Limassol,Kph,34.6852901,33.0332657,3.0,100.0,3000.0,,3100.0
416,1969,Natural,Hydrological,Flood,Flood,Flood,Algeria,Northern Africa,Africa,"Alger, Oases, Titteri",Km2,36.7435114,3.0515676,76.0,237.0,200000.0,,200237.0
417,1969,Natural,Biological,Epidemic,Viral disease,Epidemic / Viral disease,Ecuador,South America,Americas,Playas area,Vaccinated,32.40588275,-117.04914160895987,400.0,,40000.0,,40000.0
418,1969,Natural,Climatological,Drought,Drought,Drought,Ethiopia,Eastern Africa,Africa,Hamasion division,Km2,10.2116702,38.6521203,,,1700000.0,,1700000.0
419,1969,Natural,Meteorological,Storm,Storm,Storm,France,Western Europe,Europe,"Brittany, Normandy",Kph,48.634816,-4.3826218,23.0,,,,
420,1969,Natural,Meteorological,Storm,Tropical cyclone,Storm / Tropical cyclone,Guatemala,Central America,Americas,Pacific Coast region,Kph,33.80473485,-118.06351735,269.0,,10200.0,,10200.0
421,1969,Natural,Biological,Epidemic,Viral disease,Epidemic / Viral disease,Guatemala,Central America,Americas,Countrywide,Vaccinated,52.088299199999994,-2.157944832014875,4.0,,8.0,,8.0
422,1969,Natural,Meteorological,Storm,Tropical cyclone,Storm / Tropical cyclone,Hong Kong,Eastern Asia,Asia,,Kph,22.2793278,114.1628131,,,374.0,,374.0
423,1969,Natural,Climatological,Wildfire,"Land fire (Brush, Bush, Pasture)","Wildfire / Land fire (Brush, Bush, Pasture)",Hong Kong,Eastern Asia,Asia,,Km2,22.2793278,114.1628131,,,,,
424,1969,Natural,Hydrological,Flood,Flood,Flood,Hong Kong,Eastern Asia,Asia,,Km2,22.2793278,114.1628131,,,2000.0,,2000.0
425,1969,Natural,Meteorological,Storm,Tropical cyclone,Storm / Tropical cyclone,Honduras,Central America,Americas,"Roatan, Utila, Guanaja provinces",Kph,15.2572432,-86.0755145,,2.0,8000.0,,8002.0
426,1969,Natural,Biological,Epidemic,Viral disease,Epidemic / Viral disease,Honduras,Central America,Americas,,Vaccinated,15.2572432,-86.0755145,,,,,
427,1969,Natural,Geophysical,Earthquake,Tsunami,Earthquake / Tsunami,Indonesia,South-Eastern Asia,Asia,"Parasanga, Paletoang (Sulawesi)",Richter,-3.201,118.904,64.0,97.0,,6435.0,6532.0
428,1969,Natural,Meteorological,Storm,Tropical cyclone,Storm / Tropical cyclone,India,Southern Asia,Asia,"Guntur, Krishna, Godavari (Andhra Pradesh)",Kph,16.99842865,81.71561488059287,600.0,,260000.0,,260000.0
429,1969,Natural,Meteorological,Storm,Tropical cyclone,Storm / Tropical cyclone,India,Southern Asia,Asia,Andhra Pradesh,Kph,15.9240905,80.1863809,200.0,,,,
430,1970,Natural,Hydrological,Flood,Flood,Flood,Argentina,South America,Americas,Mendoza,Km2,-34.787093049999996,-68.43818677312292,36.0,,,,
431,1970,Natural,Meteorological,Storm,Tropical cyclone,Storm / Tropical cyclone,Australia,Australia and New Zealand,Oceania,Queensland,Kph,-22.1646782,144.5844903,13.0,,,,
432,1970,Natural,Hydrological,Flood,Flood,Flood,Benin,Western Africa,Africa,Atacora region,Km2,9.5293472,2.2584408,,,,,
433,1970,Natural,Meteorological,Storm,Tropical cyclone,Storm / Tropical cyclone,Bangladesh,Southern Asia,Asia,"Khulna, Chittagong",Kph,23.04120005,89.63296345292397,300000.0,,3648000.0,,3648000.0
434,1970,Natural,Meteorological,Storm,Storm,Storm,Bangladesh,Southern Asia,Asia,,Kph,24.4769288,90.2934413,17.0,,110.0,,110.0
435,1970,Natural,Hydrological,Flood,Flood,Flood,Bangladesh,Southern Asia,Asia,,Km2,24.4769288,90.2934413,,,10000000.0,,10000000.0
436,1970,Natural,Meteorological,Storm,Storm,Storm,Bangladesh,Southern Asia,Asia,Bay of Bengal districts,Kph,24.4769288,90.2934413,300.0,,,,
437,1970,Natural,Climatological,Drought,Drought,Drought,Brazil,South America,Americas,Northeast,Km2,21.928672050000003,105.98637605162554,,,10000000.0,,10000000.0
438,1970,Natural,Hydrological,Flood,Flood,Flood,Brazil,South America,Americas,"Recife, South Pernambuco",Km2,-27.2583015,-48.646195,172.0,,104371.0,,104371.0
439,1970,Natural,Hydrological,Flood,Flood,Flood,Barbados,Caribbean,Americas,Entire Isl.,Km2,13.1500331,-59.5250305,3.0,10.0,200.0,,210.0
440,1970,Natural,Climatological,Drought,Drought,Drought,Botswana,Southern Africa,Africa,Countrywide,Km2,52.088299199999994,-2.157944832014875,,,87600.0,,87600.0
441,1970,Natural,Meteorological,Storm,Storm,Storm,Canada,Northern America,Americas,Ontario,Kph,50.000678,-86.000977,10.0,,,,
442,1970,Natural,Hydrological,Landslide,Avalanche,Landslide / Avalanche,Switzerland,Western Europe,Europe,Reckingen,,46.4695629,8.2431589,30.0,,48.0,,48.0
443,1970,Natural,Meteorological,Storm,Tropical cyclone,Storm / Tropical cyclone,China,Eastern Asia,Asia,"Yang-Mei (Tao-Yuan), Wu-F Eng (Hsin-Chu), Yang-Mei, Ali-Shan, Tai-Chung, Yang-Ming-Shan, Peng-Chia-Yu regions",Kph,35.000074,104.999927,107.0,55.0,6065.0,7880.0,14000.0
444,1970,Natural,Biological,Epidemic,Bacterial disease,Epidemic / Bacterial disease,Côte d’Ivoire,Western Africa,Africa,,Vaccinated,7.9897371,-5.5679458,120.0,,1500.0,,1500.0
445,1970,Natural,Hydrological,Flood,Flood,Flood,Colombia,South America,Americas,Leticia (Amazon),Km2,-3.0683146,-59.9216455,,,4000.0,,4000.0
446,1970,Natural,Hydrological,Flood,Flood,Flood,Colombia,South America,Americas,"Magdalena, Cauca Vals",Km2,4.099917,-72.9088133,307.0,,5000000.0,105000.0,5105000.0
447,1970,Natural,Hydrological,Flood,Flood,Flood,Colombia,South America,Americas,Caldas,Km2,5.3302514,-75.2873471,100.0,,,,
448,1970,Natural,Hydrological,Flood,Flood,Flood,Costa Rica,Central America,Americas,"Limao, Cartago provinces",Km2,10.2735633,-84.0739102,23.0,40.0,10000.0,,10040.0
449,1970,Natural,Hydrological,Flood,Flood,Flood,Costa Rica,Central America,Americas,Estrella Valley,Km2,16.874682,121.5594345,1.0,,5200.0,,5200.0
450,1970,Natural,Meteorological,Storm,Tropical cyclone,Storm / Tropical cyclone,Cuba,Caribbean,Americas,,Kph,23.0131338,-80.8328748,20.0,,,,
451,1970,Natural,Biological,Epidemic,Bacterial disease,Epidemic / Bacterial disease,Cyprus,Western Asia,Asia,,Vaccinated,34.9823018,33.1451285,,,,,
452,1970,Natural,Meteorological,Storm,Tropical cyclone,Storm / Tropical cyclone,Dominica,Caribbean,Americas,,Kph,19.0974031,-70.3028026,,,,,
453,1970,Natural,Hydrological,Flood,Flood,Flood,Ecuador,South America,Americas,"Guayas, Emeral, Manabi",Km2,-0.7588025,-80.0612131,20.0,,140500.0,,140500.0
454,1970,Natural,Hydrological,Flood,Flood,Flood,Ecuador,South America,Americas,"Imbabura province, Guayas provinces",Km2,-1.3397668,-79.3666965,,,10100.0,,10100.0
455,1970,Natural,Biological,Epidemic,Bacterial disease,Epidemic / Bacterial disease,Ethiopia,Eastern Africa,Africa,,Vaccinated,10.2116702,38.6521203,500.0,,4000.0,,4000.0
456,1970,Natural,Hydrological,Landslide,Avalanche,Landslide / Avalanche,France,Western Europe,Europe,Val d'Isere,,45.4498666,6.9804421,42.0,37.0,,,37.0
457,1970,Natural,Hydrological,Landslide,Avalanche,Landslide / Avalanche,France,Western Europe,Europe,"Plateau d'Assy, St Gervais (Haute-savoie), sanatorium Praz-coutant",,45.9465309,6.719583418852459,72.0,,,,
458,1970,Natural,Meteorological,Storm,Tropical cyclone,Storm / Tropical cyclone,Guadeloupe,Caribbean,Americas,,Kph,16.2528827,-61.5686855,,,,,
459,1970,Natural,Hydrological,Flood,Flash flood,Flood / Flash flood,Hong Kong,Eastern Asia,Asia,Taipo area,Km2,22.2793278,114.1628131,,,541.0,368.0,909.0
460,1970,Natural,Hydrological,Flood,Flood,Flood,Hong Kong,Eastern Asia,Asia,Sha Tin area,Km2,22.3999589,114.20456902369233,,,529.0,,529.0
461,1970,Natural,Hydrological,Flood,Flood,Flood,Hungary,Eastern Europe,Europe,Tisza,Km2,47.7795902,21.0399878,300.0,,,,
462,1970,Natural,Hydrological,Flood,Flood,Flood,Indonesia,South-Eastern Asia,Asia,,Km2,-2.4833826,117.8902853,82.0,,,,
463,1971,Natural,Hydrological,Landslide,Landslide,Landslide,Afghanistan,Southern Asia,Asia,Khinjan Pass,,35.313846,69.0368491,100.0,,,,
464,1971,Natural,Climatological,Drought,Drought,Drought,Afghanistan,Southern Asia,Asia,"Central, North-West, North-East, West regions",Km2,35.129013650000005,-89.95152573814744,,,,,
465,1971,Natural,Hydrological,Flood,Riverine flood,Flood / Riverine flood,Australia,Australia and New Zealand,Oceania,"South Wales, Queensland, Victoria",Km2,-36.5986096,144.6780052,27.0,,,,
466,1971,Natural,Meteorological,Storm,Tropical cyclone,Storm / Tropical cyclone,Australia,Australia and New Zealand,Oceania,Townsville area (Queensland),Kph,-24.7761086,134.755,3.0,,,,
467,1971,Natural,Hydrological,Flood,Flash flood,Flood / Flash flood,Belgium,Western Europe,Europe,Bassenge,Km2,50.7583596,5.6094772,,,600.0,,600.0
468,1971,Natural,Meteorological,Storm,Tropical cyclone,Storm / Tropical cyclone,Bangladesh,Southern Asia,Asia,Coastal areas,Kph,24.4769288,90.2934413,163.0,,,,
469,1971,Natural,Hydrological,Flood,Flash flood,Flood / Flash flood,Brazil,South America,Americas,Rio de Janeiro,Km2,-22.9110137,-43.2093727,130.0,,,,
470,1971,Natural,Hydrological,Flood,Flood,Flood,Brazil,South America,Americas,Salvador,Km2,13.8000382,-88.9140683,109.0,2000.0,11000.0,,13000.0
471,1971,Natural,Meteorological,Storm,Convective storm,Winter storm/Blizzard,Canada,Northern America,Americas,Montreal (Quebec),Kph,45.5031824,-73.5698065,,,,,
472,1971,Natural,Geophysical,Mass movement (dry),Landslide,Mudslide,Canada,Northern America,Americas,Jean Vianney (Quebec),,48.6161868,-67.4131243,31.0,,,1500.0,1500.0
473,1971,Natural,Meteorological,Storm,Storm,Storm,Chile,South America,Americas,,Kph,-31.7613365,-71.3187697,,,90000.0,,90000.0
474,1971,Natural,Climatological,Drought,Drought,Drought,Cameroon,Middle Africa,Africa,,Km2,4.6125522,13.1535811,,,400000.0,,400000.0
475,1971,Natural,Hydrological,Landslide,Landslide,Landslide,Colombia,South America,Americas,,,4.099917,-72.9088133,200.0,,,,
476,1971,Natural,Hydrological,Flood,Flood,Flood,Colombia,South America,Americas,"Magdalena, Cauca Vals",Km2,4.099917,-72.9088133,,,,,
477,1971,Natural,Hydrological,Flood,Flood,Flood,Colombia,South America,Americas,,Km2,4.099917,-72.9088133,51.0,,,,
478,1971,Natural,Hydrological,Landslide,Landslide,Landslide,Ecuador,South America,Americas,Quito,,-0.2201641,-78.5123274,20.0,,6.0,,6.0
479,1971,Natural,Hydrological,Flood,Flood,Flood,Ecuador,South America,Americas,"Putumayo river, North East",Km2,54.73141115,-1.7919813357694694,,,2400.0,,2400.0
480,1971,Natural,Meteorological,Extreme temperature ,Cold wave,Extreme temperature  / Cold wave,Spain,Southern Europe,Europe,,°C,39.3260685,-4.8379791,400.0,,,,
481,1971,Natural,Meteorological,Storm,Storm,Storm,Spain,Southern Europe,Europe,Leon province,Kph,-2.9547555,150.77275,,,,,
482,1971,Natural,Climatological,Drought,Drought,Drought,Ghana,Western Africa,Africa,Countrywide,Km2,52.088299199999994,-2.157944832014875,,,12000.0,,12000.0
483,1971,Natural,Hydrological,Flood,Flood,Flood,Guyana,South America,Americas,"East coast, Cane Grove",Km2,6.6368006,-57.92932991389755,,,21000.0,,21000.0
484,1971,Natural,Meteorological,Storm,Tropical cyclone,Storm / Tropical cyclone,Hong Kong,Eastern Asia,Asia,West of Cheung Chau,Kph,22.44280385,114.0180757466558,115.0,286.0,200.0,1000.0,1486.0
485,1971,Natural,Meteorological,Storm,Tropical cyclone,Storm / Tropical cyclone,Honduras,Central America,Americas,,Kph,15.2572432,-86.0755145,,,,,
486,1971,Natural,Meteorological,Storm,Tropical cyclone,Storm / Tropical cyclone,India,Southern Asia,Asia,"East coast, Orissa state",Kph,20.4089321,85.2341273,9658.0,,4900000.0,2000000.0,6900000.0
487,1971,Natural,Meteorological,Storm,Tropical cyclone,Storm / Tropical cyclone,India,Southern Asia,Asia,"Bihar, West Bengal",Kph,26.3223696,89.4592445,60.0,,,,
488,1972,Natural,Hydrological,Flood,Flood,Flood,Afghanistan,Southern Asia,Asia,West,Km2,0.5090396,34.5731341,150.0,,250000.0,,250000.0
489,1972,Natural,Meteorological,Extreme temperature ,Heat wave,Extreme temperature  / Heat wave,Argentina,South America,Americas,Buenos Aires,°C,-34.6075682,-58.4370894,100.0,,,,
490,1972,Natural,Meteorological,Storm,Storm,Storm,Belgium,Western Europe,Europe,,Kph,50.6402809,4.6667145,,,,,
491,1972,Natural,Meteorological,Storm,Convective storm,Tornado,Bangladesh,Southern Asia,Asia,Mymensingh,Kph,24.7690447,90.41564812603733,200.0,,25000.0,,25000.0
492,1972,Natural,Hydrological,Flood,Flood,Flood,Bangladesh,Southern Asia,Asia,Sylhet,Km2,24.89922,91.8685271,50.0,,,,
493,1972,Natural,Hydrological,Flood,Flood,Flood,Botswana,Southern Africa,Africa,,Km2,-23.1681782,24.5928742,,,1000.0,,1000.0
494,1972,Natural,Hydrological,Landslide,Landslide,Landslide,Colombia,South America,Americas,San Josecito,,9.8939144,-84.1054107,70.0,,,,
495,1972,Natural,Meteorological,Storm,Storm,Storm,Germany Fed Rep,Western Europe,Europe,Lower Saxony,Kph,52.8398531,9.075962,54.0,,,,
496,1972,Natural,Hydrological,Flood,Flood,Flood,Spain,Southern Europe,Europe,Alicante province,Km2,38.3436365,-0.4881708,,,,,
497,1972,Natural,Meteorological,Storm,Tropical cyclone,Storm / Tropical cyclone,Fiji,Melanesia,Oceania,Much of nation,Kph,-18.1239696,179.0122737,3.0,,120000.0,,120000.0
498,1972,Natural,Meteorological,Storm,Storm,Storm,United Kingdom of Great Britain and Northern Ireland (the),Northern Europe,Europe,,Kph,52.45777545,-1.869209938214711,,,,,
499,1972,Natural,Hydrological,Landslide,Landslide,Landslide,Hong Kong,Eastern Asia,Asia,"Kwungton, Victoria",,-36.5986096,144.6780052,100.0,,1000.0,,1000.0
500,1972,Natural,Hydrological,Flood,Flood,Flood,Hong Kong,Eastern Asia,Asia,,Km2,22.2793278,114.1628131,,,1510.0,6055.0,7565.0
501,1972,Natural,Hydrological,Flood,Flood,Flood,Hong Kong,Eastern Asia,Asia,,Km2,22.2793278,114.1628131,138.0,56.0,6751.0,7800.0,14607.0
502,1972,Natural,Climatological,Drought,Drought,Drought,Honduras,Central America,Americas,,Km2,15.2572432,-86.0755145,,,300000.0,,300000.0
503,1972,Natural,Hydrological,Flood,Flood,Flood,Haiti,Caribbean,Americas,Les Cayes region,Km2,19.1399952,-72.3570972,78.0,,40000.0,,40000.0
504,1972,Natural,Climatological,Drought,Drought,Drought,Indonesia,South-Eastern Asia,Asia,"Central Java, Southern Isles",Km2,-10.1503273,148.2728793,,,3500000.0,,3500000.0
505,1972,Natural,Meteorological,Storm,Tropical cyclone,Storm / Tropical cyclone,India,Southern Asia,Asia,"Andhra Pradesh, Orissa",Kph,20.5431241,84.6897321,100.0,,4500000.0,,4500000.0
506,1972,Natural,Meteorological,Storm,Tropical cyclone,Storm / Tropical cyclone,India,Southern Asia,Asia,Madras City,Kph,51.6181727,-3.9835407,80.0,,30000.0,,30000.0
507,1972,Natural,Climatological,Drought,Drought,Drought,India,Southern Asia,Asia,Central,Km2,22.2818286,114.1582784,,,200000000.0,,200000000.0
508,1973,Natural,Climatological,Drought,Drought,Drought,Ethiopia,Eastern Africa,Africa,"Tigre, Wollo, North Shoa, Tigray, Kangra provinces",Km2,10.2116702,38.6521203,100000.0,,3000000.0,,3000000.0
509,1973,Natural,Meteorological,Storm,Convective storm,Tornado,Argentina,South America,Americas,San Justo,Kph,42.1343272,-6.6253752,60.0,300.0,,,300.0
510,1973,Natural,Hydrological,Flood,Flood,Flood,Australia,Australia and New Zealand,Oceania,"Queensland, New South Wales",Km2,-30.292100599999998,153.1241678546129,12.0,,11000.0,1000.0,12000.0
511,1973,Natural,Meteorological,Storm,Tropical cyclone,Storm / Tropical cyclone,Bangladesh,Southern Asia,Asia,South coast,Kph,33.7040161,-117.8804373,1000.0,,,,
512,1973,Natural,Meteorological,Storm,Storm,Storm,Bangladesh,Southern Asia,Asia,Faridpur district,Kph,23.46492195,89.86194536090468,200.0,15000.0,25000.0,10000.0,50000.0
513,1973,Natural,Hydrological,Flood,Flood,Flood,Bangladesh,Southern Asia,Asia,,Km2,24.4769288,90.2934413,427.0,,,,
514,1973,Natural,Meteorological,Storm,Storm,Storm,Bangladesh,Southern Asia,Asia,,Kph,24.4769288,90.2934413,700.0,,,,
515,1973,Natural,Hydrological,Flood,Flood,Flood,Bangladesh,Southern Asia,Asia,,Km2,24.4769288,90.2934413,,,,,
516,1973,Natural,Hydrological,Flood,Flood,Flood,Brazil,South America,Americas,"East, Central, along Cartinga",Km2,-10.3333333,-53.2,20.0,,,,
517,1973,Natural,Hydrological,Flood,Flood,Flood,Central African Republic,Middle Africa,Africa,Bangui,Km2,4.3907153,18.5509126,,,13000.0,,13000.0
518,1973,Natural,Hydrological,Flood,Riverine flood,Flood / Riverine flood,Colombia,South America,Americas,,Km2,4.099917,-72.9088133,9.0,172.0,5000.0,,5172.0
519,1973,Natural,Hydrological,Landslide,Landslide,Landslide,Colombia,South America,Americas,San Antonio De Prado,,6.2211207,-75.67724512420506,16.0,,,,
520,1973,Natural,Hydrological,Landslide,Landslide,Landslide,Colombia,South America,Americas,Bogota,,4.6534649,-74.0836453,200.0,,,,
521,1973,Natural,Climatological,Drought,Drought,Drought,Costa Rica,Central America,Americas,Laguna Arenal,Km2,-22.2144171,-66.85299219619232,,,,,
522,1973,Natural,Hydrological,Flood,Flood,Flood,Algeria,Northern Africa,Africa,"Northeast, Tlemcen",Km2,34.881789,-1.316699,21.0,,85000.0,61000.0,146000.0
523,1973,Natural,Hydrological,Landslide,Landslide,Landslide,Ecuador,South America,Americas,,,-1.3397668,-79.3666965,25.0,,,,
524,1973,Natural,Hydrological,Flood,Flood,Flood,Ecuador,South America,Americas,,Km2,-1.3397668,-79.3666965,,,,30000.0,30000.0
525,1973,Natural,Hydrological,Flood,Flash flood,Flood / Flash flood,Spain,Southern Europe,Europe,"Granada, Almeria, Murcia",Km2,37.4513299,-1.8369771,500.0,,,,
526,1973,Natural,Meteorological,Storm,Storm,Storm,Spain,Southern Europe,Europe,Atlantic coast,Kph,50.2119308,-5.3899093,19.0,,,,
527,1973,Natural,Meteorological,Storm,Tropical cyclone,Storm / Tropical cyclone,Fiji,Melanesia,Oceania,"Savusavu, Bua",Kph,54.9722866,48.2928964,,,1150.0,,1150.0
528,1973,Natural,Meteorological,Storm,Tropical cyclone,Storm / Tropical cyclone,Fiji,Melanesia,Oceania,"Kadavu, South Lau group",Kph,22.4941754,114.1430637,59.0,,5000.0,,5000.0
529,1973,Natural,Climatological,Wildfire,"Land fire (Brush, Bush, Pasture)","Wildfire / Land fire (Brush, Bush, Pasture)",Gambia (the),Western Africa,Africa,,Km2,13.470062,-15.4900464,,,,5000.0,5000.0
530,1973,Natural,Hydrological,Flood,Flood,Flood,Guatemala,Central America,Americas,"South West coast, Pantaleon R.",Km2,15.5855545,-90.345759,5.0,,1000.0,,1000.0
531,1973,Natural,Meteorological,Storm,Tropical cyclone,Storm / Tropical cyclone,Hong Kong,Eastern Asia,Asia,"uen Long, Tai Po, Sha Tin, Tin Shui Wai",Kph,22.4596112,114.0022375,1.0,38.0,238.0,,276.0
532,1973,Natural,Climatological,Wildfire,"Land fire (Brush, Bush, Pasture)","Wildfire / Land fire (Brush, Bush, Pasture)",Hong Kong,Eastern Asia,Asia,,Km2,22.2793278,114.1628131,,,,,
533,1973,Natural,Hydrological,Landslide,Landslide,Landslide,Honduras,Central America,Americas,Cholima,,15.2572432,-86.0755145,2800.0,,,,
534,1973,Natural,Meteorological,Storm,Tropical cyclone,Storm / Tropical cyclone,Indonesia,South-Eastern Asia,Asia,Flores,Kph,-8.50998605,120.59815014764581,1650.0,,,,
535,1973,Natural,Meteorological,Extreme temperature ,Cold wave,Extreme temperature  / Cold wave,India,Southern Asia,Asia,"Uttar Pradesh, Bihar",°C,27.2231459,78.0186903,115.0,,,,
536,1973,Natural,Meteorological,Extreme temperature ,Cold wave,Extreme temperature  / Cold wave,India,Southern Asia,Asia,"Bihar, Delhi",°C,24.5700734,84.7930022,146.0,,,,
537,1974,Natural,Meteorological,Storm,Storm,Storm,Argentina,South America,Americas,Santiago Del Estero,Kph,-27.6431016,-63.5408542,100.0,,100000.0,,100000.0
538,1974,Natural,Meteorological,Storm,Tropical cyclone,Storm / Tropical cyclone,Australia,Australia and New Zealand,Oceania,Darwin,Kph,-12.46044,130.8410469,65.0,640.0,45000.0,,45640.0
539,1974,Natural,Meteorological,Storm,Tropical cyclone,Storm / Tropical cyclone,Australia,Australia and New Zealand,Oceania,Brisbane (Queensland),Kph,-27.4689682,153.0234991,11.0,,,,
540,1974,Natural,Climatological,Drought,Drought,Drought,Australia,Australia and New Zealand,Oceania,Central New South Wales,Km2,-33.88445645,151.2058642022614,,,,,
541,1974,Natural,Hydrological,Flood,Flood,Flood,Australia,Australia and New Zealand,Oceania,Brisbane,Km2,-27.4689682,153.0234991,14.0,,,,
542,1974,Natural,Meteorological,Storm,Tropical cyclone,Storm / Tropical cyclone,Bangladesh,Southern Asia,Asia,,Kph,24.4769288,90.2934413,2500.0,,,,
543,1974,Natural,Meteorological,Storm,Tropical cyclone,Storm / Tropical cyclone,Bangladesh,Southern Asia,Asia,"Coastal areas, off-shore Islands",Kph,24.4769288,90.2934413,,,,,
544,1974,Natural,Climatological,Drought,Drought,Drought,Bangladesh,Southern Asia,Asia,Northwest,Km2,6.3775255,10.3864171,,,,,
545,1974,Natural,Hydrological,Flood,Flood,Flood,Bangladesh,Southern Asia,Asia,,Km2,24.4769288,90.2934413,28700.0,,36000000.0,2000000.0,38000000.0
546,1974,Natural,Meteorological,Storm,Storm,Storm,Bangladesh,Southern Asia,Asia,,Kph,24.4769288,90.2934413,300.0,,,,
547,1974,Natural,Meteorological,Storm,Tropical cyclone,Storm / Tropical cyclone,Belize,Central America,Americas,"Coast, Southern",Kph,55.466696,8.4448167,,,70000.0,,70000.0
548,1974,Natural,Hydrological,Flood,Flood,Flood,Bolivia (Plurinational State of),South America,Americas,"Beni, La Paz, Oruro",Km2,-18.666667,-67.666667,31.0,,18000.0,,18000.0
549,1974,Natural,Hydrological,Landslide,Landslide,Landslide,Brazil,South America,Americas,North East (Ceara),,-10.3333333,-53.2,91.0,,,,
550,1974,Natural,Hydrological,Landslide,Landslide,Landslide,Brazil,South America,Americas,Sao Tome,,0.3389242,6.7313031,30.0,,,,
551,1974,Natural,Biological,Epidemic,Bacterial disease,Epidemic / Bacterial disease,Brazil,South America,Americas,Sao Paulo,Vaccinated,-23.5506507,-46.6333824,1500.0,,30000.0,,30000.0
552,1974,Natural,Hydrological,Flood,Flood,Flood,Brazil,South America,Americas,Most of the country,Km2,-10.3333333,-53.2,205.0,,325000.0,,325000.0
553,1974,Natural,Hydrological,Flood,Flood,Flood,Canada,Northern America,Americas,Manitoba,Km2,55.001251,-97.001038,,,,,
554,1974,Natural,Hydrological,Flood,Flood,Flood,Chile,South America,Americas,"Central, South",Km2,-33.88445645,151.2058642022614,32.0,,40000.0,,40000.0
555,1974,Natural,Hydrological,Landslide,Landslide,Landslide,Colombia,South America,Americas,Quebrada Blanca,,-22.9604366,-67.0519265,300.0,1000.0,,,1000.0
556,1974,Natural,Hydrological,Landslide,Landslide,Landslide,Colombia,South America,Americas,Medellin,,6.2443382,-75.573553,90.0,,,,
557,1974,Natural,Hydrological,Landslide,Avalanche,Landslide / Avalanche,Czechoslovakia,Eastern Europe,Europe,Tatra montains (Slovakia),,14.480176,121.0392436,14.0,,,,
558,1974,Natural,Meteorological,Storm,Storm,Storm,Germany Fed Rep,Western Europe,Europe,"Lower Saxony,Bavaria",Kph,53.516027,8.134268,,,,,
559,1974,Natural,Hydrological,Flood,Flood,Flood,Algeria,Northern Africa,Africa,"G. Kabylia, Tlemcem",Km2,45.367451849999995,5.593082812730323,11.0,,20000.0,,20000.0
560,1974,Natural,Meteorological,Storm,Tropical cyclone,Storm / Tropical cyclone,Hong Kong,Eastern Asia,Asia,,Kph,22.2793278,114.1628131,1.0,,1000.0,,1000.0
561,1974,Natural,Meteorological,Storm,Tropical cyclone,Storm / Tropical cyclone,Hong Kong,Eastern Asia,Asia,,Kph,22.2793278,114.1628131,,,1400.0,,1400.0
562,1974,Natural,Meteorological,Storm,Tropical cyclone,Storm / Tropical cyclone,Honduras,Central America,Americas,Widespread,Kph,33.9658952,-83.3548748,8000.0,,600000.0,,600000.0
563,1974,Natural,Climatological,Drought,Drought,Drought,Haiti,Caribbean,Americas,Northwest Peninsula,Km2,45.5452443,-122.70407044630542,,,507000.0,,507000.0
564,1974,Natural,Meteorological,Storm,Storm,Storm,Indonesia,South-Eastern Asia,Asia,Situbondo (West Java),Kph,-2.4833826,117.8902853,10.0,,2000.0,,2000.0
565,1974,Natural,Meteorological,Storm,Tropical cyclone,Storm / Tropical cyclone,India,Southern Asia,Asia,"West Bengal, Madya Pradesh, Gujarat states",Kph,22.3511148,78.6677428,20.0,100.0,,,100.0
566,1974,Natural,Meteorological,Storm,Tropical cyclone,Storm / Tropical cyclone,India,Southern Asia,Asia,Midnapore,Kph,22.4671958,87.17500550608798,,,25000.0,,25000.0
567,1975,Natural,Hydrological,Flood,Flood,Flood,China,Eastern Asia,Asia,Henan province,Km2,34.0000001,113.9999999,20000.0,,11000000.0,,11000000.0
568,1975,Natural,Meteorological,Storm,Storm,Storm,Argentina,South America,Americas,Nequen province,Kph,-34.9964963,-64.9672817,20.0,,,,
569,1975,Natural,Hydrological,Landslide,Landslide,Landslide,Austria,Western Europe,Europe,Alps,,45.9081401,9.141582381412086,15.0,,,,
570,1975,Natural,Meteorological,Extreme temperature ,Cold wave,Extreme temperature  / Cold wave,Brazil,South America,Americas,Parana,°C,-24.4842187,-51.8148872,70.0,600.0,,,600.0
571,1975,Natural,Meteorological,Extreme temperature ,Heat wave,Extreme temperature  / Heat wave,Brazil,South America,Americas,,°C,-10.3333333,-53.2,56.0,,,,
572,1975,Natural,Biological,Epidemic,Bacterial disease,Epidemic / Bacterial disease,Brazil,South America,Americas,"Pernambuco, Recife (North East areas)",Vaccinated,-10.3333333,-53.2,,,107.0,,107.0
573,1975,Natural,Hydrological,Flood,Flood,Flood,Brazil,South America,Americas,"Pernambuco, Recife (North East areas)",Km2,-10.3333333,-53.2,118.0,,748000.0,80000.0,828000.0
574,1975,Natural,Meteorological,Storm,Storm,Storm,Canada,Northern America,Americas,Vancouver Island,Kph,49.592949450000006,-125.70255696124094,14.0,,,,
575,1975,Natural,Meteorological,Storm,Storm,Storm,Canada,Northern America,Americas,"Saint Bonaventure, Quebec",Kph,45.964754,-72.68383,,40.0,,300.0,340.0
576,1975,Natural,Hydrological,Landslide,Avalanche,Landslide / Avalanche,Switzerland,Western Europe,Europe,Alps,,45.9081401,9.141582381412086,13.0,,,,
577,1975,Complex Disasters,Complex Disasters,Complex Disasters,Famine,Complex Disasters / Famine,Comoros (the),Eastern Africa,Africa,,,-12.2045176,44.2832964,,,300000.0,,300000.0
578,1975,Natural,Hydrological,Flood,Flood,Flood,Egypt,Northern Africa,Africa,Nile river Valley,Km2,33.6959091,-117.9716383,15.0,,,,
579,1975,Natural,Meteorological,Storm,Tropical cyclone,Storm / Tropical cyclone,Fiji,Melanesia,Oceania,Lau group,Kph,22.4941754,114.1430637,,,23000.0,,23000.0
580,1975,Natural,Hydrological,Flood,Flood,Flood,Grenada,Caribbean,Americas,,Km2,12.1360374,-61.6904045,,,,,
581,1975,Natural,Meteorological,Storm,Tropical cyclone,Storm / Tropical cyclone,Hong Kong,Eastern Asia,Asia,,Kph,22.2793278,114.1628131,,46.0,671.0,1280.0,1997.0
582,1975,Natural,Hydrological,Flood,Flood,Flood,Hong Kong,Eastern Asia,Asia,,Km2,22.2793278,114.1628131,,,1912.0,,1912.0
583,1975,Natural,Hydrological,Flood,Flood,Flood,Hong Kong,Eastern Asia,Asia,"Saikung, Kowloon, Chai Wa",Km2,34.8027,111.539,3.0,,1194.0,,1194.0
584,1975,Natural,Hydrological,Flood,Flood,Flood,Hong Kong,Eastern Asia,Asia,,Km2,22.2793278,114.1628131,,,,150.0,150.0
585,1975,Natural,Meteorological,Storm,Tropical cyclone,Storm / Tropical cyclone,India,Southern Asia,Asia,Madras city,Kph,51.6181727,-3.9835407,,,,2000.0,2000.0
586,1976,Natural,Hydrological,Flood,Flood,Flood,Afghanistan,Southern Asia,Asia,"Herat, Farah, Kandahar",Km2,33.053844,62.5311437,51.0,,80000.0,,80000.0
587,1976,Natural,Climatological,Drought,Drought,Drought,Australia,Australia and New Zealand,Oceania,"Victoria, South Australia, Southern Inland New South Wales",Km2,-24.7761086,134.755,,,,,
588,1976,Natural,Climatological,Drought,Drought,Drought,Australia,Australia and New Zealand,Oceania,Southwest of Western Australia,Km2,-32.7583801,115.8806086,,,,,
589,1976,Natural,Hydrological,Flood,Flood,Flood,Australia,Australia and New Zealand,Oceania,Queanreyan,Km2,-24.7761086,134.755,,,10000.0,,10000.0
590,1976,Natural,Meteorological,Storm,Storm,Storm,Australia,Australia and New Zealand,Oceania,Sydney,Kph,-33.8698439,151.2082848,,,,,
591,1976,Natural,Meteorological,Storm,Storm,Storm,Austria,Western Europe,Europe,,Kph,47.59397,14.12456,,,,,
592,1976,Natural,Climatological,Drought,Drought,Drought,Belgium,Western Europe,Europe,,Km2,50.6402809,4.6667145,,,,,
593,1976,Natural,Meteorological,Storm,Storm,Storm,Belgium,Western Europe,Europe,Ruisbroek,Kph,50.7900129,4.2980824,,,,,
594,1976,Natural,Biological,Epidemic,Viral disease,Epidemic / Viral disease,Benin,Western Africa,Africa,,Vaccinated,9.5293472,2.2584408,1.0,,7.0,,7.0
595,1976,Natural,Climatological,Drought,Drought,Drought,Burkina Faso,Western Africa,Africa,Nationwide,Km2,51.5382399,-1.776966675,,,442000.0,,442000.0
596,1976,Natural,Meteorological,Storm,Convective storm,Tornado,Bangladesh,Southern Asia,Asia,Faridpur district,Kph,23.46492195,89.86194536090468,46.0,200.0,,,200.0
597,1976,Natural,Meteorological,Storm,Convective storm,Tornado,Bangladesh,Southern Asia,Asia,Dhamgarh (near Dacca),Kph,24.4769288,90.2934413,1.0,,,,
598,1976,Natural,Hydrological,Flood,Flood,Flood,Bangladesh,Southern Asia,Asia,Easr,Km2,23.613318800000002,88.38288950616344,168.0,,4000000.0,,4000000.0
599,1976,Natural,Meteorological,Storm,Storm,Storm,Switzerland,Western Europe,Europe,,Kph,46.7985624,8.2319736,,,,,
600,1976,Natural,Hydrological,Landslide,Landslide,Landslide,Colombia,South America,Americas,Near Fresno,,36.7915933,-119.79154065807904,13.0,16.0,,,16.0
601,1976,Natural,Hydrological,Flood,Flood,Flood,Colombia,South America,Americas,,Km2,4.099917,-72.9088133,47.0,,,,
602,1976,Natural,Climatological,Wildfire,Forest fire,Wildfire / Forest fire,Costa Rica,Central America,Americas,Chirripo Mountain,Km2,10.2735633,-84.0739102,,,,,
603,1976,Natural,Meteorological,Storm,Storm,Storm,Germany Fed Rep,Western Europe,Europe,,Kph,51.1638175,10.4478313,82.0,,,,
604,1976,Natural,Meteorological,Storm,Storm,Storm,Denmark,Northern Europe,Europe,,Kph,55.670249,10.3333283,,,,,
605,1976,Natural,Hydrological,Landslide,Landslide,Landslide,Ecuador,South America,Americas,Esmeraldas,,0.7343619,-79.3858867,60.0,,,,
606,1976,Natural,Hydrological,Flood,Flood,Flood,Ethiopia,Eastern Africa,Africa,"Gode, Kelafo, Mustahil",Km2,5.22139,44.73361,,,50000.0,20000.0,70000.0
607,1976,Natural,Meteorological,Storm,Storm,Storm,France,Western Europe,Europe,,Kph,46.603354,1.8883335,,,,,
608,1976,Natural,Meteorological,Storm,Storm,Storm,United Kingdom of Great Britain and Northern Ireland (the),Northern Europe,Europe,,Kph,52.45777545,-1.869209938214711,,,,,
609,1976,Natural,Climatological,Drought,Drought,Drought,Gambia (the),Western Africa,Africa,,Km2,13.470062,-15.4900464,,,,,
610,1976,Natural,Meteorological,Storm,Tropical cyclone,Storm / Tropical cyclone,Guam,Micronesia,Oceania,,Kph,13.450125700000001,144.75755102972062,9.0,,,,
611,1976,Natural,Meteorological,Storm,Tropical cyclone,Storm / Tropical cyclone,Hong Kong,Eastern Asia,Asia,,Kph,22.2793278,114.1628131,5.0,2.0,,,2.0
612,1976,Natural,Meteorological,Storm,Tropical cyclone,Storm / Tropical cyclone,Hong Kong,Eastern Asia,Asia,,Kph,22.2793278,114.1628131,3.0,1.0,,,1.0
613,1976,Natural,Meteorological,Storm,Tropical cyclone,Storm / Tropical cyclone,Hong Kong,Eastern Asia,Asia,"Sau Mau Ping, Lantao Isl., Ping Shan, Ngau Tam Mei, Lo Wu",Kph,22.528975199999998,114.11326668219087,30.0,65.0,,2424.0,2489.0
614,1976,Natural,Climatological,Drought,Drought,Drought,Hong Kong,Eastern Asia,Asia,Hong Kong,Km2,22.2793278,114.1628131,,,,,
615,1976,Natural,Hydrological,Flood,Flood,Flood,Hong Kong,Eastern Asia,Asia,"Sam Shing Hui, Tuen Mun (Southwest)",Km2,22.2793278,114.1628131,,,200.0,,200.0
616,1976,Natural,Hydrological,Flood,Flood,Flood,Honduras,Central America,Americas,North coast,Km2,53.9025867,-130.09907310011187,20.0,,15000.0,,15000.0
617,1976,Natural,Hydrological,Flood,Flash flood,Flood / Flash flood,Indonesia,South-Eastern Asia,Asia,"East Java, Lumajang",Km2,-8.135205,113.2244162,163.0,20.0,20000.0,,20020.0
618,1976,Natural,Meteorological,Storm,Storm,Storm,Indonesia,South-Eastern Asia,Asia,,Kph,-2.4833826,117.8902853,25.0,,,,
619,1976,Natural,Meteorological,Storm,Tropical cyclone,Storm / Tropical cyclone,India,Southern Asia,Asia,"Midnapore, Parganas districts (West Bengal), Balasore district (Orissa)",Kph,21.49337035,86.93558061678965,40.0,,,,
620,1976,Natural,Meteorological,Storm,Tropical cyclone,Storm / Tropical cyclone,India,Southern Asia,Asia,Madras/Nellore (Andhra Pradesh),Kph,22.3511148,78.6677428,95.0,,300000.0,,300000.0
621,1976,Natural,Meteorological,Storm,Tropical cyclone,Storm / Tropical cyclone,India,Southern Asia,Asia,"Gujarat, Maharastra",Kph,18.9846012,73.26805891153111,87.0,,250000.0,,250000.0
622,1976,Natural,Meteorological,Storm,Tropical cyclone,Storm / Tropical cyclone,India,Southern Asia,Asia,"Krishna District, near Masulipatnam (Andhra Pradesh)",Kph,22.3511148,78.6677428,18.0,,,,
623,1976,Natural,Meteorological,Storm,Tropical cyclone,Storm / Tropical cyclone,India,Southern Asia,Asia,Between Nellore and Kavali (Andhra Pradesh),Kph,22.3511148,78.6677428,30.0,,50000.0,,50000.0
624,1977,Natural,Climatological,Drought,Drought,Drought,Ghana,Western Africa,Africa,"North, Upper regions",Km2,6.35,-2.61,,,,,
625,1977,Natural,Climatological,Drought,Drought,Drought,Haiti,Caribbean,Americas,Countrywide,Km2,52.088299199999994,-2.157944832014875,,,450000.0,,450000.0
626,1977,Natural,Hydrological,Flood,Riverine flood,Flood / Riverine flood,Argentina,South America,Americas,"North-East, Central",Km2,22.5724857,88.3587427,,,2500.0,,2500.0
627,1977,Natural,Climatological,Wildfire,"Land fire (Brush, Bush, Pasture)","Wildfire / Land fire (Brush, Bush, Pasture)",Australia,Australia and New Zealand,Oceania,"Blue Mountains, New South Wales",Km2,-33.60974105,150.40522373235163,3.0,,,,
628,1977,Natural,Hydrological,Flood,Flood,Flood,Burkina Faso,Western Africa,Africa,,Km2,12.0753083,-1.6880314,,,,900.0,900.0
629,1977,Natural,Meteorological,Storm,Convective storm,Tornado,Bangladesh,Southern Asia,Asia,,Kph,24.4769288,90.2934413,21.0,500.0,,,500.0
630,1977,Natural,Meteorological,Storm,Tropical cyclone,Storm / Tropical cyclone,Bangladesh,Southern Asia,Asia,Mymensingh district,Kph,24.72263185,90.4186807964615,13.0,100.0,,,100.0
631,1977,Natural,Biological,Epidemic,Bacterial disease,Epidemic / Bacterial disease,Bangladesh,Southern Asia,Asia,,Vaccinated,24.4769288,90.2934413,260.0,,10461.0,,10461.0
632,1977,Natural,Meteorological,Storm,Storm,Storm,Bangladesh,Southern Asia,Asia,Madaripur,Kph,23.20503995,90.18965579155994,600.0,10000.0,,,10000.0
633,1977,Natural,Hydrological,Flood,Flood,Flood,Bangladesh,Southern Asia,Asia,Brahmaputra Valley,Km2,24.4769288,90.2934413,5.0,,200000.0,,200000.0
634,1977,Natural,Hydrological,Flood,Flood,Flood,Bangladesh,Southern Asia,Asia,,Km2,24.4769288,90.2934413,8.0,,13650.0,,13650.0
635,1977,Natural,Climatological,Drought,Drought,Drought,Bolivia (Plurinational State of),South America,Americas,Potosi department,Km2,-20.666667,-66.666667,,,,,
636,1977,Natural,Hydrological,Flood,Flood,Flood,Bolivia (Plurinational State of),South America,Americas,Santa Cruz department,Km2,-17.333333,-61.5,10.0,,70000.0,20000.0,90000.0
637,1977,Natural,Climatological,Drought,Drought,Drought,Brazil,South America,Americas,North East,Km2,54.73141115,-1.7919813357694694,,,,,
638,1977,Natural,Hydrological,Flood,Flood,Flood,Brazil,South America,Americas,Recife,Km2,-8.0584933,-34.8848193,2.0,,75000.0,50000.0,125000.0
639,1977,Natural,Meteorological,Storm,Storm,Storm,Brazil,South America,Americas," Aracaju, Sergipe",Kph,-10.9162061,-37.0774655,10.0,100.0,,,100.0
640,1977,Natural,Hydrological,Flood,Flood,Flood,Brazil,South America,Americas,Rio Grande Do Sul,Km2,-29.8425284,-53.7680577,,,6000.0,,6000.0
641,1977,Natural,Hydrological,Flood,Flood,Flood,Brazil,South America,Americas,,Km2,-10.3333333,-53.2,60.0,,,,
642,1977,Natural,Climatological,Drought,Drought,Drought,Canada,Northern America,Americas,Prairie provinces,Km2,47.8032972,1.0431705,,,,,
643,1977,Natural,Meteorological,Storm,Storm,Storm,Canada,Northern America,Americas,"Niagara Peninsula, Ontario",Kph,45.1515368,-81.3355078,,,,,
644,1977,Natural,Hydrological,Flood,Flood,Flood,Switzerland,Western Europe,Europe,Uri canton,Km2,46.4790151,8.7968263,,,,,
645,1977,Natural,Meteorological,Storm,Storm,Storm,Chile,South America,Americas,Santiago area,Kph,-8.3768916,-74.5365118,15.0,,,16800.0,16800.0
646,1977,Natural,Hydrological,Landslide,Landslide,Landslide,Colombia,South America,Americas,Marizales,,39.6037206,-7.4995085,,,,100.0,100.0
647,1977,Natural,Hydrological,Flood,Flood,Flood,Cuba,Caribbean,Americas,Eastern,Km2,1.1787184,38.6025801,7.0,,18000.0,,18000.0
648,1977,Natural,Hydrological,Flood,Flood,Flood,Djibouti,Eastern Africa,Africa,Djibouti city,Km2,-26.0263303,28.2115746,,,85000.0,6000.0,91000.0
649,1977,Natural,Biological,Epidemic,Bacterial disease,Epidemic / Bacterial disease,Ecuador,South America,Americas,West portions of Quito,Vaccinated,-1.3397668,-79.3666965,,,300.0,,300.0
650,1977,Natural,Hydrological,Flood,Flood,Flood,Ethiopia,Eastern Africa,Africa,Awash River Valley,Km2,10.2116702,38.6521203,7.0,,16000.0,,16000.0
651,1977,Natural,Hydrological,Flood,Riverine flood,Flood / Riverine flood,France,Western Europe,Europe,Gers (South West),Km2,46.603354,1.8883335,26.0,,25000.0,,25000.0
652,1977,Natural,Hydrological,Flood,Coastal flood,Flood / Coastal flood,United Kingdom of Great Britain and Northern Ireland (the),Northern Europe,Europe,,Km2,52.45777545,-1.869209938214711,6.0,,,,
653,1977,Natural,Biological,Epidemic,Bacterial disease,Epidemic / Bacterial disease,Ghana,Western Africa,Africa,,Vaccinated,8.0300284,-1.0800271,,,6558.0,,6558.0
